Time_s,Pos_X_m,Pos_Y_m,Pos_Z_m,Vel_X_ms,Vel_Y_ms,Vel_Z_ms,Roll_rad,Pitch_rad,Yaw_rad,AngVel_P_rads,AngVel_Q_rads,AngVel_R_rads,Thrust_N,Roll_Rate_Cmd_rads,Pitch_Rate_Cmd_rads,Yaw_Rate_Cmd_rads,Ref_X_m,Ref_Y_m,Ref_Z_m,Position_Error_m,Solve_Time_ms,Solve_Success
0.0000,0.000000,0.000000,1.000000,0.000000,0.000000,0.000000,0.000000,0.000000,0.000000,0.000000,0.000000,0.000000,0.264872,0.000000,0.000000,0.000000,0.000000,0.000000,1.000000,0.000000,64.3513,1
0.0208,0.000000,0.000000,1.000003,0.000000,0.000000,0.000210,0.000000,0.000000,0.000000,0.000000,0.000000,0.000000,0.264587,0.000000,0.000000,0.000000,0.000000,0.000000,1.000000,0.000003,21.6734,1
0.0417,0.000000,0.000000,1.000007,0.000000,0.000000,0.000200,0.000000,0.000000,0.000000,0.000000,0.000000,0.000000,0.264587,0.000000,0.000000,0.000000,0.000000,0.000000,1.000000,0.000007,17.6952,1
0.0625,0.000000,0.000000,1.000011,0.000000,0.000000,0.000190,0.000000,0.000000,0.000000,0.000000,0.000000,0.000000,0.264588,0.000000,0.000000,0.000000,0.000000,0.000000,1.000000,0.000011,11.1742,1
0.0833,0.000000,0.000000,1.000015,0.000000,0.000000,0.000180,0.000000,0.000000,0.000000,0.000000,0.000000,0.000000,0.264588,0.000000,0.000000,0.000000,0.000000,0.000000,1.000000,0.000015,16.2983,1
0.1042,0.000000,0.000000,1.000018,0.000000,0.000000,0.000171,0.000000,0.000000,0.000000,0.000000,0.000000,0.000000,0.264589,0.000000,0.000000,0.000000,0.000000,0.000000,1.000000,0.000018,22.2991,1
0.1250,0.000000,0.000000,1.000022,0.000000,0.000000,0.000162,0.000000,0.000000,0.000000,0.000000,0.000000,0.000000,0.264589,0.000000,0.000000,0.000000,0.000000,0.000000,1.000000,0.000022,16.9456,1
0.1458,0.000000,0.000000,1.000025,0.000000,0.000000,0.000154,0.000000,0.000000,0.000000,0.000000,0.000000,0.000000,0.264590,0.000000,0.000000,0.000000,0.000000,0.000000,1.000000,0.000025,11.4043,1
0.1667,0.000000,0.000000,1.000028,0.000000,0.000000,0.000146,0.000000,0.000000,0.000000,0.000000,0.000000,0.000000,0.264590,0.000000,0.000000,0.000000,0.000000,0.000000,1.000000,0.000028,16.1250,1
0.1875,0.000000,0.000000,1.000031,0.000000,0.000000,0.000138,0.000000,0.000000,0.000000,0.000000,0.000000,0.000000,0.264591,0.000000,0.000000,0.000000,0.000000,0.000000,1.000000,0.000031,22.1584,1
0.2083,0.000000,0.000000,1.000034,0.000000,0.000000,0.000131,0.000000,0.000000,0.000000,0.000000,0.000000,0.000000,0.264591,0.000000,0.000000,0.000000,0.000000,0.000000,1.000000,0.000034,15.4130,1
0.2292,0.000000,0.000000,1.000037,0.000000,0.000000,0.000124,0.000000,0.000000,0.000000,0.000000,0.000000,0.000000,0.264592,0.000000,0.000000,0.000000,0.000000,0.000000,1.000000,0.000037,20.7798,1
0.2500,0.000000,0.000000,1.000039,0.000000,0.000000,0.000118,0.000000,0.000000,0.000000,0.000000,0.000000,0.000000,0.264592,0.000000,0.000000,0.000000,0.000000,0.000000,1.000000,0.000039,22.5353,1
0.2708,0.000000,0.000000,1.000041,0.000000,0.000000,0.000112,0.000000,0.000000,0.000000,0.000000,0.000000,0.000000,0.264593,0.000000,0.000000,0.000000,0.000000,0.000000,1.000000,0.000041,22.2931,1
0.2917,0.000000,0.000000,1.000044,0.000000,0.000000,0.000106,0.000000,0.000000,0.000000,0.000000,0.000000,0.000000,0.264593,0.000000,0.000000,0.000000,0.000000,0.000000,1.000000,0.000044,16.8128,1
0.3125,0.000000,0.000000,1.000046,0.000000,0.000000,0.000101,0.000000,0.000000,0.000000,0.000000,0.000000,0.000000,0.264593,0.000000,0.000000,0.000000,0.000000,0.000000,1.000000,0.000046,16.7980,1
0.3333,0.000000,0.000000,1.000048,0.000000,0.000000,0.000096,0.000000,0.000000,0.000000,0.000000,0.000000,0.000000,0.264594,0.000000,0.000000,0.000000,0.000000,0.000000,1.000000,0.000048,11.6653,1
0.3542,0.000000,0.000000,1.000050,0.000000,0.000000,0.000091,0.000000,0.000000,0.000000,0.000000,0.000000,0.000000,0.264594,0.000000,0.000000,0.000000,0.000000,0.000000,1.000000,0.000050,22.2554,1
0.3750,0.000000,0.000000,1.000052,0.000000,0.000000,0.000086,0.000000,0.000000,0.000000,0.000000,0.000000,0.000000,0.264594,0.000000,0.000000,0.000000,0.000000,0.000000,1.000000,0.000052,24.2798,1
0.3958,0.000000,0.000000,1.000053,0.000000,0.000000,0.000082,0.000000,0.000000,0.000000,0.000000,0.000000,0.000000,0.264595,0.000000,0.000000,0.000000,0.000000,0.000000,1.000000,0.000053,20.9789,1
0.4167,0.000000,0.000000,1.000055,0.000000,0.000000,0.000078,0.000000,0.000000,0.000000,0.000000,0.000000,0.000000,0.264595,0.000000,0.000000,0.000000,0.000000,0.000000,1.000000,0.000055,15.2910,1
0.4375,0.000000,0.000000,1.000057,0.000000,0.000000,0.000074,0.000000,0.000000,0.000000,0.000000,0.000000,0.000000,0.264595,0.000000,0.000000,0.000000,0.000000,0.000000,1.000000,0.000057,20.0324,1
0.4583,0.000000,0.000000,1.000058,0.000000,0.000000,0.000070,0.000000,0.000000,0.000000,0.000000,0.000000,0.000000,0.264595,0.000000,0.000000,0.000000,0.000000,0.000000,1.000000,0.000058,11.2374,1
0.4792,0.000000,0.000000,1.000060,0.000000,0.000000,0.000066,0.000000,0.000000,0.000000,0.000000,0.000000,0.000000,0.264596,0.000000,0.000000,0.000000,0.000000,0.000000,1.000000,0.000060,16.2063,1
0.5000,0.000000,0.000000,1.000061,0.000000,0.000000,0.000063,0.000000,0.000000,0.000000,0.000000,0.000000,0.000000,0.264596,0.000000,0.000000,0.000000,0.000000,0.000000,1.000000,0.000061,22.6276,1
0.5208,0.000000,0.000000,1.000062,0.000000,0.000000,0.000060,0.000000,0.000000,0.000000,0.000000,0.000000,0.000000,0.264596,0.000000,0.000000,0.000000,0.000000,0.000000,1.000000,0.000062,13.4075,1
0.5417,0.000000,0.000000,1.000063,0.000000,0.000000,0.000057,0.000000,0.000000,0.000000,0.000000,0.000000,0.000000,0.264596,0.000000,0.000000,0.000000,0.000000,0.000000,1.000000,0.000063,17.7135,1
0.5625,0.000000,0.000000,1.000064,0.000000,0.000000,0.000054,0.000000,0.000000,0.000000,0.000000,0.000000,0.000000,0.264596,0.000000,0.000000,0.000000,0.000000,0.000000,1.000000,0.000064,11.8387,1
0.5833,0.000000,0.000000,1.000066,0.000000,0.000000,0.000051,0.000000,0.000000,0.000000,0.000000,0.000000,0.000000,0.264597,0.000000,0.000000,0.000000,0.000000,0.000000,1.000000,0.000066,17.6919,1
0.6042,0.000000,0.000000,1.000067,0.000000,0.000000,0.000048,0.000000,0.000000,0.000000,0.000000,0.000000,0.000000,0.264597,0.000000,0.000000,0.000000,0.000000,0.000000,1.000000,0.000067,16.6240,1
0.6250,0.000000,0.000000,1.000068,0.000000,0.000000,0.000046,0.000000,0.000000,0.000000,0.000000,0.000000,0.000000,0.264597,0.000000,0.000000,0.000000,0.000000,0.000000,1.000000,0.000068,13.9697,1
0.6458,0.000000,0.000000,1.000068,0.000000,0.000000,0.000044,0.000000,0.000000,0.000000,0.000000,0.000000,0.000000,0.264597,0.000000,0.000000,0.000000,0.000000,0.000000,1.000000,0.000068,6.0220,1
0.6667,0.000000,0.000000,1.000069,0.000000,0.000000,0.000041,0.000000,0.000000,0.000000,0.000000,0.000000,0.000000,0.264597,0.000000,0.000000,0.000000,0.000000,0.000000,1.000000,0.000069,5.8339,1
0.6875,0.000000,0.000000,1.000070,0.000000,0.000000,0.000039,0.000000,0.000000,0.000000,0.000000,0.000000,0.000000,0.264597,0.000000,0.000000,0.000000,0.000000,0.000000,1.000000,0.000070,20.1206,1
0.7083,0.000000,0.000000,1.000071,0.000000,0.000000,0.000037,0.000000,0.000000,0.000000,0.000000,0.000000,0.000000,0.264598,0.000000,0.000000,0.000000,0.000000,0.000000,1.000000,0.000071,19.4440,1
0.7292,0.000000,0.000000,1.000072,0.000000,0.000000,0.000035,0.000000,0.000000,0.000000,0.000000,0.000000,0.000000,0.264598,0.000000,0.000000,0.000000,0.000000,0.000000,1.000000,0.000072,20.8979,1
0.7500,0.000000,0.000000,1.000072,0.000000,0.000000,0.000033,0.000000,0.000000,0.000000,0.000000,0.000000,0.000000,0.264598,0.000000,0.000000,0.000000,0.000000,0.000000,1.000000,0.000072,25.9044,1
0.7708,0.000000,0.000000,1.000073,0.000000,0.000000,0.000032,0.000000,0.000000,0.000000,0.000000,0.000000,0.000000,0.264598,0.000000,0.000000,0.000000,0.000000,0.000000,1.000000,0.000073,11.7495,1
0.7917,0.000000,0.000000,1.000074,0.000000,0.000000,0.000030,0.000000,0.000000,0.000000,0.000000,0.000000,0.000000,0.264598,0.000000,0.000000,0.000000,0.000000,0.000000,1.000000,0.000074,19.2046,1
0.8125,0.000000,0.000000,1.000074,0.000000,0.000000,0.000029,0.000000,0.000000,0.000000,0.000000,0.000000,0.000000,0.264598,0.000000,0.000000,0.000000,0.000000,0.000000,1.000000,0.000074,18.5659,1
0.8333,0.000000,0.000000,1.000075,0.000000,0.000000,0.000027,0.000000,0.000000,0.000000,0.000000,0.000000,0.000000,0.264598,0.000000,0.000000,0.000000,0.000000,0.000000,1.000000,0.000075,11.2960,1
0.8542,0.000000,0.000000,1.000075,0.000000,0.000000,0.000026,0.000000,0.000000,0.000000,0.000000,0.000000,0.000000,0.264598,0.000000,0.000000,0.000000,0.000000,0.000000,1.000000,0.000075,29.6695,1
0.8750,0.000000,0.000000,1.000076,0.000000,0.000000,0.000024,0.000000,0.000000,0.000000,0.000000,0.000000,0.000000,0.264598,0.000000,0.000000,0.000000,0.000000,0.000000,1.000000,0.000076,15.9974,1
0.8958,0.000000,0.000000,1.000077,0.000000,0.000000,0.000023,0.000000,0.000000,0.000000,0.000000,0.000000,0.000000,0.264598,0.000000,0.000000,0.000000,0.000000,0.000000,1.000000,0.000077,6.7606,1
0.9167,0.000000,0.000000,1.000077,0.000000,0.000000,0.000022,0.000000,0.000000,0.000000,0.000000,0.000000,0.000000,0.264599,0.000000,0.000000,0.000000,0.000000,0.000000,1.000000,0.000077,12.2709,1
0.9375,0.000000,0.000000,1.000077,0.000000,0.000000,0.000021,0.000000,0.000000,0.000000,0.000000,0.000000,0.000000,0.264599,0.000000,0.000000,0.000000,0.000000,0.000000,1.000000,0.000077,27.6763,1
0.9583,0.000000,0.000000,1.000078,0.000000,0.000000,0.000020,0.000000,0.000000,0.000000,0.000000,0.000000,0.000000,0.264599,0.000000,0.000000,0.000000,0.000000,0.000000,1.000000,0.000078,15.6963,1
0.9792,0.000000,0.000000,1.000078,0.000000,0.000000,0.000019,0.000000,0.000000,0.000000,0.000000,0.000000,0.000000,0.264599,0.000000,0.000000,0.000000,0.000000,0.000000,1.000000,0.000078,9.0501,1
1.0000,0.000000,0.000000,1.000079,0.000000,0.000000,0.000018,0.000000,0.000000,0.000000,0.000000,0.000000,0.000000,0.264599,0.000000,0.000000,0.000000,0.000000,0.000000,1.000000,0.000079,20.3998,1
1.0208,0.000000,0.000000,1.000079,0.000000,0.000000,0.000017,0.000000,0.000000,0.000000,0.000000,0.000000,0.000000,0.264599,0.000000,0.000000,0.000000,0.000000,0.000000,1.000000,0.000079,13.0014,1
1.0417,0.000000,0.000000,1.000079,0.000000,0.000000,0.000016,0.000000,0.000000,0.000000,0.000000,0.000000,0.000000,0.264599,0.000000,0.000000,0.000000,0.000000,0.000000,1.000000,0.000079,12.4109,1
1.0625,0.000000,0.000000,1.000080,0.000000,0.000000,0.000015,0.000000,0.000000,0.000000,0.000000,0.000000,0.000000,0.264599,0.000000,0.000000,0.000000,0.000000,0.000000,1.000000,0.000080,12.5456,1
1.0833,0.000000,0.000000,1.000080,0.000000,0.000000,0.000014,0.000000,0.000000,0.000000,0.000000,0.000000,0.000000,0.264599,0.000000,0.000000,0.000000,0.000000,0.000000,1.000000,0.000080,2.0065,1
1.1042,0.000000,0.000000,1.000080,0.000000,0.000000,0.000014,0.000000,0.000000,0.000000,0.000000,0.000000,0.000000,0.264599,0.000000,0.000000,0.000000,0.000000,0.000000,1.000000,0.000080,6.0842,1
1.1250,0.000000,0.000000,1.000081,0.000000,0.000000,0.000013,0.000000,0.000000,0.000000,0.000000,0.000000,0.000000,0.264599,0.000000,0.000000,0.000000,0.000000,0.000000,1.000000,0.000081,23.1786,1
1.1458,0.000000,0.000000,1.000081,0.000000,0.000000,0.000012,0.000000,0.000000,0.000000,0.000000,0.000000,0.000000,0.264599,0.000000,0.000000,0.000000,0.000000,0.000000,1.000000,0.000081,15.0197,1
1.1667,0.000000,0.000000,1.000081,0.000000,0.000000,0.000012,0.000000,0.000000,0.000000,0.000000,0.000000,0.000000,0.264599,0.000000,0.000000,0.000000,0.000000,0.000000,1.000000,0.000081,11.7893,1
1.1875,0.000000,0.000000,1.000081,0.000000,0.000000,0.000011,0.000000,0.000000,0.000000,0.000000,0.000000,0.000000,0.264599,0.000000,0.000000,0.000000,0.000000,0.000000,1.000000,0.000081,17.6671,1
1.2083,0.000000,0.000000,1.000081,0.000000,0.000000,0.000011,0.000000,0.000000,0.000000,0.000000,0.000000,0.000000,0.264599,0.000000,0.000000,0.000000,0.000000,0.000000,1.000000,0.000081,17.4959,1
1.2292,0.000000,0.000000,1.000082,0.000000,0.000000,0.000010,0.000000,0.000000,0.000000,0.000000,0.000000,0.000000,0.264599,0.000000,0.000000,0.000000,0.000000,0.000000,1.000000,0.000082,11.6668,1
1.2500,0.000000,0.000000,1.000082,0.000000,0.000000,0.000009,0.000000,0.000000,0.000000,0.000000,0.000000,0.000000,0.264599,0.000000,0.000000,0.000000,0.000000,0.000000,1.000000,0.000082,19.1236,1
1.2708,0.000000,0.000000,1.000082,0.000000,0.000000,0.000009,0.000000,0.000000,0.000000,0.000000,0.000000,0.000000,0.264599,0.000000,0.000000,0.000000,0.000000,0.000000,1.000000,0.000082,13.7267,1
1.2917,0.000000,0.000000,1.000082,0.000000,0.000000,0.000009,0.000000,0.000000,0.000000,0.000000,0.000000,0.000000,0.264599,0.000000,0.000000,0.000000,0.000000,0.000000,1.000000,0.000082,13.4904,1
1.3125,0.000000,0.000000,1.000082,0.000000,0.000000,0.000008,0.000000,0.000000,0.000000,0.000000,0.000000,0.000000,0.264599,0.000000,0.000000,0.000000,0.000000,0.000000,1.000000,0.000082,5.7867,1
1.3333,0.000000,0.000000,1.000083,0.000000,0.000000,0.000008,0.000000,0.000000,0.000000,0.000000,0.000000,0.000000,0.264599,0.000000,0.000000,0.000000,0.000000,0.000000,1.000000,0.000083,0.4113,1
1.3542,0.000000,0.000000,1.000083,0.000000,0.000000,0.000007,0.000000,0.000000,0.000000,0.000000,0.000000,0.000000,0.264600,0.000000,0.000000,0.000000,0.000000,0.000000,1.000000,0.000083,16.5396,1
1.3750,0.000000,0.000000,1.000083,0.000000,0.000000,0.000007,0.000000,0.000000,0.000000,0.000000,0.000000,0.000000,0.264600,0.000000,0.000000,0.000000,0.000000,0.000000,1.000000,0.000083,26.3948,1
1.3958,0.000000,0.000000,1.000083,0.000000,0.000000,0.000007,0.000000,0.000000,0.000000,0.000000,0.000000,0.000000,0.264600,0.000000,0.000000,0.000000,0.000000,0.000000,1.000000,0.000083,9.8717,1
1.4167,0.000000,0.000000,1.000083,0.000000,0.000000,0.000006,0.000000,0.000000,0.000000,0.000000,0.000000,0.000000,0.264600,0.000000,0.000000,0.000000,0.000000,0.000000,1.000000,0.000083,17.0736,1
1.4375,0.000000,0.000000,1.000083,0.000000,0.000000,0.000006,0.000000,0.000000,0.000000,0.000000,0.000000,0.000000,0.264600,0.000000,0.000000,0.000000,0.000000,0.000000,1.000000,0.000083,17.4930,1
1.4583,0.000000,0.000000,1.000083,0.000000,0.000000,0.000006,0.000000,0.000000,0.000000,0.000000,0.000000,0.000000,0.264600,0.000000,0.000000,0.000000,0.000000,0.000000,1.000000,0.000083,22.0301,1
1.4792,0.000000,0.000000,1.000084,0.000000,0.000000,0.000005,0.000000,0.000000,0.000000,0.000000,0.000000,0.000000,0.264600,0.000000,0.000000,0.000000,0.000000,0.000000,1.000000,0.000084,5.7251,1
1.5000,0.000000,0.000000,1.000084,0.000000,0.000000,0.000005,0.000000,0.000000,0.000000,0.000000,0.000000,0.000000,0.264600,0.000000,0.000000,0.000000,0.000000,0.000000,1.000000,0.000084,16.5725,1
1.5208,0.000000,0.000000,1.000084,0.000000,0.000000,0.000005,0.000000,0.000000,0.000000,0.000000,0.000000,0.000000,0.264600,0.000000,0.000000,0.000000,0.000000,0.000000,1.000000,0.000084,23.7670,1
1.5417,0.000000,0.000000,1.000084,0.000000,0.000000,0.000005,0.000000,0.000000,0.000000,0.000000,0.000000,0.000000,0.264600,0.000000,0.000000,0.000000,0.000000,0.000000,1.000000,0.000084,15.5632,1
1.5625,0.000000,0.000000,1.000084,0.000000,0.000000,0.000004,0.000000,0.000000,0.000000,0.000000,0.000000,0.000000,0.264600,0.000000,0.000000,0.000000,0.000000,0.000000,1.000000,0.000084,16.2883,1
1.5833,0.000000,0.000000,1.000084,0.000000,0.000000,0.000004,0.000000,0.000000,0.000000,0.000000,0.000000,0.000000,0.264600,0.000000,0.000000,0.000000,0.000000,0.000000,1.000000,0.000084,13.9689,1
1.6042,0.000000,0.000000,1.000084,0.000000,0.000000,0.000004,0.000000,0.000000,0.000000,0.000000,0.000000,0.000000,0.264600,0.000000,0.000000,0.000000,0.000000,0.000000,1.000000,0.000084,11.3020,1
1.6250,0.000000,0.000000,1.000084,0.000000,0.000000,0.000004,0.000000,0.000000,0.000000,0.000000,0.000000,0.000000,0.264600,0.000000,0.000000,0.000000,0.000000,0.000000,1.000000,0.000084,18.3718,1
1.6458,0.000000,0.000000,1.000084,0.000000,0.000000,0.000003,0.000000,0.000000,0.000000,0.000000,0.000000,0.000000,0.264600,0.000000,0.000000,0.000000,0.000000,0.000000,1.000000,0.000084,19.4168,1
1.6667,0.000000,0.000000,1.000084,0.000000,0.000000,0.000003,0.000000,0.000000,0.000000,0.000000,0.000000,0.000000,0.264600,0.000000,0.000000,0.000000,0.000000,0.000000,1.000000,0.000084,17.8173,1
1.6875,0.000000,0.000000,1.000084,0.000000,0.000000,0.000003,0.000000,0.000000,0.000000,0.000000,0.000000,0.000000,0.264600,0.000000,0.000000,0.000000,0.000000,0.000000,1.000000,0.000084,16.7172,1
1.7083,0.000000,0.000000,1.000084,0.000000,0.000000,0.000003,0.000000,0.000000,0.000000,0.000000,0.000000,0.000000,0.264600,0.000000,0.000000,0.000000,0.000000,0.000000,1.000000,0.000084,11.2607,1
1.7292,0.000000,0.000000,1.000085,0.000000,0.000000,0.000003,0.000000,0.000000,0.000000,0.000000,0.000000,0.000000,0.264600,0.000000,0.000000,0.000000,0.000000,0.000000,1.000000,0.000085,21.9998,1
1.7500,0.000000,0.000000,1.000085,0.000000,0.000000,0.000003,0.000000,0.000000,0.000000,0.000000,0.000000,0.000000,0.264600,0.000000,0.000000,0.000000,0.000000,0.000000,1.000000,0.000085,10.9434,1
1.7708,0.000000,0.000000,1.000085,0.000000,0.000000,0.000003,0.000000,0.000000,0.000000,0.000000,0.000000,0.000000,0.264600,0.000000,0.000000,0.000000,0.000000,0.000000,1.000000,0.000085,16.6411,1
1.7917,0.000000,0.000000,1.000085,0.000000,0.000000,0.000002,0.000000,0.000000,0.000000,0.000000,0.000000,0.000000,0.264600,0.000000,0.000000,0.000000,0.000000,0.000000,1.000000,0.000085,20.3843,1
1.8125,0.000000,0.000000,1.000085,0.000000,0.000000,0.000002,0.000000,0.000000,0.000000,0.000000,0.000000,0.000000,0.264600,0.000000,0.000000,0.000000,0.000000,0.000000,1.000000,0.000085,15.4445,1
1.8333,0.000000,0.000000,1.000085,0.000000,0.000000,0.000002,0.000000,0.000000,0.000000,0.000000,0.000000,0.000000,0.264600,0.000000,0.000000,0.000000,0.000000,0.000000,1.000000,0.000085,18.1820,1
1.8542,0.000000,0.000000,1.000085,0.000000,0.000000,0.000002,0.000000,0.000000,0.000000,0.000000,0.000000,0.000000,0.264600,0.000000,0.000000,0.000000,0.000000,0.000000,1.000000,0.000085,16.4859,1
1.8750,0.000000,0.000000,1.000085,0.000000,0.000000,0.000002,0.000000,0.000000,0.000000,0.000000,0.000000,0.000000,0.264600,0.000000,0.000000,0.000000,0.000000,0.000000,1.000000,0.000085,15.1825,1
1.8958,0.000000,0.000000,1.000085,0.000000,0.000000,0.000002,0.000000,0.000000,0.000000,0.000000,0.000000,0.000000,0.264600,0.000000,0.000000,0.000000,0.000000,0.000000,1.000000,0.000085,11.6463,1
1.9167,0.000000,0.000000,1.000085,0.000000,0.000000,0.000002,0.000000,0.000000,0.000000,0.000000,0.000000,0.000000,0.264600,0.000000,0.000000,0.000000,0.000000,0.000000,1.000000,0.000085,17.8969,1
1.9375,0.000000,0.000000,1.000085,0.000000,0.000000,0.000002,0.000000,0.000000,0.000000,0.000000,0.000000,0.000000,0.264600,0.000000,0.000000,0.000000,0.000000,0.000000,1.000000,0.000085,14.1072,1
1.9583,0.000000,0.000000,1.000085,0.000000,0.000000,0.000002,0.000000,0.000000,0.000000,0.000000,0.000000,0.000000,0.264600,0.000000,0.000000,0.000000,0.000000,0.000000,1.000000,0.000085,14.1294,1
1.9792,0.000000,0.000000,1.000085,0.000000,0.000000,0.000002,0.000000,0.000000,0.000000,0.000000,0.000000,0.000000,0.264600,0.000000,0.000000,0.000000,0.000000,0.000000,1.000000,0.000085,17.6494,1
2.0000,0.000000,0.000000,1.000085,0.000000,0.000000,0.000001,0.000000,0.000000,0.000000,0.000000,0.000000,0.000000,0.264600,0.000000,0.000000,0.000000,0.000000,0.000000,1.000000,0.000085,15.4796,1
