Time_s,Pos_X_m,Pos_Y_m,Pos_Z_m,Vel_X_ms,Vel_Y_ms,Vel_Z_ms,Roll_rad,Pitch_rad,Yaw_rad,AngVel_P_rads,AngVel_Q_rads,AngVel_R_rads,Thrust_N,Roll_Rate_Cmd_rads,Pitch_Rate_Cmd_rads,Yaw_Rate_Cmd_rads,Ref_X_m,Ref_Y_m,Ref_Z_m,Position_Error_m,Solve_Time_ms,Solve_Success
0.0000,0.000000,0.000000,0.100000,0.000000,0.000000,0.000000,0.000000,0.000000,0.000000,0.000000,0.000000,0.000000,0.600000,0.000000,0.000000,0.000000,0.000000,0.000000,1.000000,0.900000,115.4957,1
0.0208,0.000000,0.000000,0.103170,0.000000,0.000000,0.253580,0.000000,0.000000,0.000000,0.000000,0.000000,0.000000,0.600000,0.000000,0.000000,0.000000,0.000000,0.000000,1.000000,0.896830,28.0676,1
0.0417,0.000000,0.000000,0.111620,0.000000,0.000000,0.506852,0.000000,0.000000,0.000000,0.000000,0.000000,0.000000,0.600000,0.000000,0.000000,0.000000,0.000000,0.000000,1.000000,0.888380,40.1680,1
0.0625,0.000000,0.000000,0.125341,0.000000,0.000000,0.759710,0.000000,0.000000,0.000000,0.000000,0.000000,0.000000,0.600000,0.000000,0.000000,0.000000,0.000000,0.000000,1.000000,0.874659,38.6019,1
0.0833,0.000000,0.000000,0.144323,0.000000,0.000000,1.012049,0.000000,0.000000,0.000000,0.000000,0.000000,0.000000,0.600000,0.000000,0.000000,0.000000,0.000000,0.000000,1.000000,0.855677,21.3203,1
0.1042,0.000000,0.000000,0.168555,0.000000,0.000000,1.263763,0.000000,0.000000,0.000000,0.000000,0.000000,0.000000,0.600000,0.000000,0.000000,0.000000,0.000000,0.000000,1.000000,0.831445,39.0868,1
0.1250,0.000000,0.000000,0.198022,0.000000,0.000000,1.514748,0.000000,0.000000,0.000000,0.000000,0.000000,0.000000,0.600000,0.000000,0.000000,0.000000,0.000000,0.000000,1.000000,0.801978,36.8338,1
0.1458,0.000000,0.000000,0.232708,0.000000,0.000000,1.764902,0.000000,0.000000,0.000000,0.000000,0.000000,0.000000,0.418178,0.000000,0.000000,0.000000,0.000000,0.000000,1.000000,0.767292,29.9633,1
0.1667,0.000000,0.000000,0.270905,0.000000,0.000000,1.879162,0.000000,0.000000,0.000000,0.000000,0.000000,0.000000,0.142603,0.000000,0.000000,0.000000,0.000000,0.000000,1.000000,0.729095,33.6976,1
0.1875,0.000000,0.000000,0.308823,0.000000,0.000000,1.780674,0.000000,0.000000,0.000000,0.000000,0.000000,0.000000,0.148509,0.000000,0.000000,0.000000,0.000000,0.000000,1.000000,0.691177,26.7198,1
0.2083,0.000000,0.000000,0.344750,0.000000,0.000000,1.687112,0.000000,0.000000,0.000000,0.000000,0.000000,0.000000,0.154426,0.000000,0.000000,0.000000,0.000000,0.000000,1.000000,0.655250,31.5616,1
0.2292,0.000000,0.000000,0.378789,0.000000,0.000000,1.598452,0.000000,0.000000,0.000000,0.000000,0.000000,0.000000,0.160053,0.000000,0.000000,0.000000,0.000000,0.000000,1.000000,0.621211,36.5598,1
0.2500,0.000000,0.000000,0.411040,0.000000,0.000000,1.514437,0.000000,0.000000,0.000000,0.000000,0.000000,0.000000,0.165401,0.000000,0.000000,0.000000,0.000000,0.000000,1.000000,0.588960,48.5930,1
0.2708,0.000000,0.000000,0.441595,0.000000,0.000000,1.434827,0.000000,0.000000,0.000000,0.000000,0.000000,0.000000,0.170924,0.000000,0.000000,0.000000,0.000000,0.000000,1.000000,0.558405,37.9834,1
0.2917,0.000000,0.000000,0.470548,0.000000,0.000000,1.359731,0.000000,0.000000,0.000000,0.000000,0.000000,0.000000,0.175776,0.000000,0.000000,0.000000,0.000000,0.000000,1.000000,0.529452,34.2479,1
0.3125,0.000000,0.000000,0.497987,0.000000,0.000000,1.288608,0.000000,0.000000,0.000000,0.000000,0.000000,0.000000,0.180317,0.000000,0.000000,0.000000,0.000000,0.000000,1.000000,0.502013,26.2158,1
0.3333,0.000000,0.000000,0.523990,0.000000,0.000000,1.221196,0.000000,0.000000,0.000000,0.000000,0.000000,0.000000,0.184631,0.000000,0.000000,0.000000,0.000000,0.000000,1.000000,0.476010,41.1303,1
0.3542,0.000000,0.000000,0.548632,0.000000,0.000000,1.157304,0.000000,0.000000,0.000000,0.000000,0.000000,0.000000,0.188730,0.000000,0.000000,0.000000,0.000000,0.000000,1.000000,0.451368,22.9530,1
0.3750,0.000000,0.000000,0.571985,0.000000,0.000000,1.096747,0.000000,0.000000,0.000000,0.000000,0.000000,0.000000,0.192759,0.000000,0.000000,0.000000,0.000000,0.000000,1.000000,0.428015,41.6358,1
0.3958,0.000000,0.000000,0.594118,0.000000,0.000000,1.039458,0.000000,0.000000,0.000000,0.000000,0.000000,0.000000,0.196693,0.000000,0.000000,0.000000,0.000000,0.000000,1.000000,0.405882,35.2693,1
0.4167,0.000000,0.000000,0.615097,0.000000,0.000000,0.985349,0.000000,0.000000,0.000000,0.000000,0.000000,0.000000,0.200167,0.000000,0.000000,0.000000,0.000000,0.000000,1.000000,0.384903,28.8022,1
0.4375,0.000000,0.000000,0.634983,0.000000,0.000000,0.934052,0.000000,0.000000,0.000000,0.000000,0.000000,0.000000,0.203466,0.000000,0.000000,0.000000,0.000000,0.000000,1.000000,0.365017,28.4505,1
0.4583,0.000000,0.000000,0.653835,0.000000,0.000000,0.885421,0.000000,0.000000,0.000000,0.000000,0.000000,0.000000,0.206599,0.000000,0.000000,0.000000,0.000000,0.000000,1.000000,0.346165,20.9682,1
0.4792,0.000000,0.000000,0.671705,0.000000,0.000000,0.839318,0.000000,0.000000,0.000000,0.000000,0.000000,0.000000,0.209574,0.000000,0.000000,0.000000,0.000000,0.000000,1.000000,0.328295,41.6965,1
0.5000,0.000000,0.000000,0.688644,0.000000,0.000000,0.795613,0.000000,0.000000,0.000000,0.000000,0.000000,0.000000,0.212400,0.000000,0.000000,0.000000,0.000000,0.000000,1.000000,0.311356,23.4108,1
0.5208,0.000000,0.000000,0.704701,0.000000,0.000000,0.754180,0.000000,0.000000,0.000000,0.000000,0.000000,0.000000,0.215221,0.000000,0.000000,0.000000,0.000000,0.000000,1.000000,0.295299,42.6626,1
0.5417,0.000000,0.000000,0.719923,0.000000,0.000000,0.715009,0.000000,0.000000,0.000000,0.000000,0.000000,0.000000,0.217893,0.000000,0.000000,0.000000,0.000000,0.000000,1.000000,0.280077,20.3178,1
0.5625,0.000000,0.000000,0.734356,0.000000,0.000000,0.677977,0.000000,0.000000,0.000000,0.000000,0.000000,0.000000,0.220284,0.000000,0.000000,0.000000,0.000000,0.000000,1.000000,0.265644,39.3653,1
0.5833,0.000000,0.000000,0.748042,0.000000,0.000000,0.642862,0.000000,0.000000,0.000000,0.000000,0.000000,0.000000,0.222553,0.000000,0.000000,0.000000,0.000000,0.000000,1.000000,0.251958,26.3650,1
0.6042,0.000000,0.000000,0.761019,0.000000,0.000000,0.609563,0.000000,0.000000,0.000000,0.000000,0.000000,0.000000,0.224707,0.000000,0.000000,0.000000,0.000000,0.000000,1.000000,0.238981,19.2997,1
0.6250,0.000000,0.000000,0.773323,0.000000,0.000000,0.577987,0.000000,0.000000,0.000000,0.000000,0.000000,0.000000,0.226753,0.000000,0.000000,0.000000,0.000000,0.000000,1.000000,0.226677,39.4099,1
0.6458,0.000000,0.000000,0.784990,0.000000,0.000000,0.548045,0.000000,0.000000,0.000000,0.000000,0.000000,0.000000,0.228694,0.000000,0.000000,0.000000,0.000000,0.000000,1.000000,0.215010,24.9498,1
0.6667,0.000000,0.000000,0.796053,0.000000,0.000000,0.519653,0.000000,0.000000,0.000000,0.000000,0.000000,0.000000,0.230538,0.000000,0.000000,0.000000,0.000000,0.000000,1.000000,0.203947,14.9815,1
0.6875,0.000000,0.000000,0.806542,0.000000,0.000000,0.492731,0.000000,0.000000,0.000000,0.000000,0.000000,0.000000,0.232287,0.000000,0.000000,0.000000,0.000000,0.000000,1.000000,0.193458,50.8778,1
0.7083,0.000000,0.000000,0.816488,0.000000,0.000000,0.467202,0.000000,0.000000,0.000000,0.000000,0.000000,0.000000,0.233999,0.000000,0.000000,0.000000,0.000000,0.000000,1.000000,0.183512,32.0313,1
0.7292,0.000000,0.000000,0.825919,0.000000,0.000000,0.443034,0.000000,0.000000,0.000000,0.000000,0.000000,0.000000,0.235700,0.000000,0.000000,0.000000,0.000000,0.000000,1.000000,0.174081,34.7064,1
0.7500,0.000000,0.000000,0.834864,0.000000,0.000000,0.420216,0.000000,0.000000,0.000000,0.000000,0.000000,0.000000,0.237178,0.000000,0.000000,0.000000,0.000000,0.000000,1.000000,0.165136,29.3820,1
0.7708,0.000000,0.000000,0.843348,0.000000,0.000000,0.398573,0.000000,0.000000,0.000000,0.000000,0.000000,0.000000,0.238580,0.000000,0.000000,0.000000,0.000000,0.000000,1.000000,0.156652,15.9316,1
0.7917,0.000000,0.000000,0.851395,0.000000,0.000000,0.378044,0.000000,0.000000,0.000000,0.000000,0.000000,0.000000,0.239911,0.000000,0.000000,0.000000,0.000000,0.000000,1.000000,0.148605,27.9403,1
0.8125,0.000000,0.000000,0.859027,0.000000,0.000000,0.358571,0.000000,0.000000,0.000000,0.000000,0.000000,0.000000,0.241175,0.000000,0.000000,0.000000,0.000000,0.000000,1.000000,0.140973,21.7175,1
0.8333,0.000000,0.000000,0.866267,0.000000,0.000000,0.340101,0.000000,0.000000,0.000000,0.000000,0.000000,0.000000,0.242375,0.000000,0.000000,0.000000,0.000000,0.000000,1.000000,0.133733,31.1332,1
0.8542,0.000000,0.000000,0.873133,0.000000,0.000000,0.322582,0.000000,0.000000,0.000000,0.000000,0.000000,0.000000,0.243513,0.000000,0.000000,0.000000,0.000000,0.000000,1.000000,0.126867,32.4335,1
0.8750,0.000000,0.000000,0.879646,0.000000,0.000000,0.305964,0.000000,0.000000,0.000000,0.000000,0.000000,0.000000,0.244593,0.000000,0.000000,0.000000,0.000000,0.000000,1.000000,0.120354,21.4164,1
0.8958,0.000000,0.000000,0.885823,0.000000,0.000000,0.290202,0.000000,0.000000,0.000000,0.000000,0.000000,0.000000,0.245619,0.000000,0.000000,0.000000,0.000000,0.000000,1.000000,0.114177,28.2197,1
0.9167,0.000000,0.000000,0.891682,0.000000,0.000000,0.275252,0.000000,0.000000,0.000000,0.000000,0.000000,0.000000,0.246592,0.000000,0.000000,0.000000,0.000000,0.000000,1.000000,0.108318,35.1186,1
0.9375,0.000000,0.000000,0.897239,0.000000,0.000000,0.261072,0.000000,0.000000,0.000000,0.000000,0.000000,0.000000,0.247515,0.000000,0.000000,0.000000,0.000000,0.000000,1.000000,0.102761,36.2191,1
0.9583,0.000000,0.000000,0.902510,0.000000,0.000000,0.247621,0.000000,0.000000,0.000000,0.000000,0.000000,0.000000,0.248392,0.000000,0.000000,0.000000,0.000000,0.000000,1.000000,0.097490,28.7330,1
0.9792,0.000000,0.000000,0.907509,0.000000,0.000000,0.234864,0.000000,0.000000,0.000000,0.000000,0.000000,0.000000,0.249223,0.000000,0.000000,0.000000,0.000000,0.000000,1.000000,0.092491,33.2882,1
1.0000,0.000000,0.000000,0.912251,0.000000,0.000000,0.222763,0.000000,0.000000,0.000000,0.000000,0.000000,0.000000,0.250012,0.000000,0.000000,0.000000,0.000000,0.000000,1.000000,0.087749,37.7178,1
1.0208,0.000000,0.000000,0.916748,0.000000,0.000000,0.211286,0.000000,0.000000,0.000000,0.000000,0.000000,0.000000,0.250806,0.000000,0.000000,0.000000,0.000000,0.000000,1.000000,0.083252,28.9929,1
1.0417,0.000000,0.000000,0.921014,0.000000,0.000000,0.200434,0.000000,0.000000,0.000000,0.000000,0.000000,0.000000,0.251559,0.000000,0.000000,0.000000,0.000000,0.000000,1.000000,0.078986,36.4437,1
1.0625,0.000000,0.000000,0.925062,0.000000,0.000000,0.190176,0.000000,0.000000,0.000000,0.000000,0.000000,0.000000,0.252225,0.000000,0.000000,0.000000,0.000000,0.000000,1.000000,0.074938,11.9963,1
1.0833,0.000000,0.000000,0.928902,0.000000,0.000000,0.180443,0.000000,0.000000,0.000000,0.000000,0.000000,0.000000,0.252856,0.000000,0.000000,0.000000,0.000000,0.000000,1.000000,0.071098,38.2812,1
1.1042,0.000000,0.000000,0.932546,0.000000,0.000000,0.171208,0.000000,0.000000,0.000000,0.000000,0.000000,0.000000,0.253455,0.000000,0.000000,0.000000,0.000000,0.000000,1.000000,0.067454,19.7434,1
1.1250,0.000000,0.000000,0.936003,0.000000,0.000000,0.162445,0.000000,0.000000,0.000000,0.000000,0.000000,0.000000,0.254024,0.000000,0.000000,0.000000,0.000000,0.000000,1.000000,0.063997,31.5020,1
1.1458,0.000000,0.000000,0.939283,0.000000,0.000000,0.154131,0.000000,0.000000,0.000000,0.000000,0.000000,0.000000,0.254564,0.000000,0.000000,0.000000,0.000000,0.000000,1.000000,0.060717,11.9174,1
1.1667,0.000000,0.000000,0.942396,0.000000,0.000000,0.146242,0.000000,0.000000,0.000000,0.000000,0.000000,0.000000,0.255076,0.000000,0.000000,0.000000,0.000000,0.000000,1.000000,0.057604,19.8448,1
1.1875,0.000000,0.000000,0.945349,0.000000,0.000000,0.138757,0.000000,0.000000,0.000000,0.000000,0.000000,0.000000,0.255562,0.000000,0.000000,0.000000,0.000000,0.000000,1.000000,0.054651,22.1477,1
1.2083,0.000000,0.000000,0.948151,0.000000,0.000000,0.131655,0.000000,0.000000,0.000000,0.000000,0.000000,0.000000,0.256024,0.000000,0.000000,0.000000,0.000000,0.000000,1.000000,0.051849,11.7738,1
1.2292,0.000000,0.000000,0.950810,0.000000,0.000000,0.124916,0.000000,0.000000,0.000000,0.000000,0.000000,0.000000,0.256462,0.000000,0.000000,0.000000,0.000000,0.000000,1.000000,0.049190,21.2922,1
1.2500,0.000000,0.000000,0.953332,0.000000,0.000000,0.118522,0.000000,0.000000,0.000000,0.000000,0.000000,0.000000,0.256878,0.000000,0.000000,0.000000,0.000000,0.000000,1.000000,0.046668,10.9549,1
1.2708,0.000000,0.000000,0.955725,0.000000,0.000000,0.112456,0.000000,0.000000,0.000000,0.000000,0.000000,0.000000,0.257272,0.000000,0.000000,0.000000,0.000000,0.000000,1.000000,0.044275,36.3374,1
1.2917,0.000000,0.000000,0.957996,0.000000,0.000000,0.106699,0.000000,0.000000,0.000000,0.000000,0.000000,0.000000,0.257646,0.000000,0.000000,0.000000,0.000000,0.000000,1.000000,0.042004,24.9298,1
1.3125,0.000000,0.000000,0.960151,0.000000,0.000000,0.101238,0.000000,0.000000,0.000000,0.000000,0.000000,0.000000,0.258002,0.000000,0.000000,0.000000,0.000000,0.000000,1.000000,0.039849,23.7050,1
1.3333,0.000000,0.000000,0.962195,0.000000,0.000000,0.096056,0.000000,0.000000,0.000000,0.000000,0.000000,0.000000,0.258339,0.000000,0.000000,0.000000,0.000000,0.000000,1.000000,0.037805,18.5611,1
1.3542,0.000000,0.000000,0.964135,0.000000,0.000000,0.091139,0.000000,0.000000,0.000000,0.000000,0.000000,0.000000,0.258659,0.000000,0.000000,0.000000,0.000000,0.000000,1.000000,0.035865,11.2283,1
1.3750,0.000000,0.000000,0.965975,0.000000,0.000000,0.086474,0.000000,0.000000,0.000000,0.000000,0.000000,0.000000,0.258963,0.000000,0.000000,0.000000,0.000000,0.000000,1.000000,0.034025,16.6471,1
1.3958,0.000000,0.000000,0.967722,0.000000,0.000000,0.082047,0.000000,0.000000,0.000000,0.000000,0.000000,0.000000,0.259251,0.000000,0.000000,0.000000,0.000000,0.000000,1.000000,0.032278,18.2295,1
1.4167,0.000000,0.000000,0.969378,0.000000,0.000000,0.077847,0.000000,0.000000,0.000000,0.000000,0.000000,0.000000,0.259524,0.000000,0.000000,0.000000,0.000000,0.000000,1.000000,0.030622,18.6772,1
1.4375,0.000000,0.000000,0.970950,0.000000,0.000000,0.073862,0.000000,0.000000,0.000000,0.000000,0.000000,0.000000,0.259784,0.000000,0.000000,0.000000,0.000000,0.000000,1.000000,0.029050,18.7180,1
1.4583,0.000000,0.000000,0.972442,0.000000,0.000000,0.070081,0.000000,0.000000,0.000000,0.000000,0.000000,0.000000,0.260030,0.000000,0.000000,0.000000,0.000000,0.000000,1.000000,0.027558,16.9468,1
1.4792,0.000000,0.000000,0.973857,0.000000,0.000000,0.066494,0.000000,0.000000,0.000000,0.000000,0.000000,0.000000,0.260264,0.000000,0.000000,0.000000,0.000000,0.000000,1.000000,0.026143,11.1592,1
1.5000,0.000000,0.000000,0.975200,0.000000,0.000000,0.063090,0.000000,0.000000,0.000000,0.000000,0.000000,0.000000,0.260485,0.000000,0.000000,0.000000,0.000000,0.000000,1.000000,0.024800,22.4171,1
1.5208,0.000000,0.000000,0.976474,0.000000,0.000000,0.059860,0.000000,0.000000,0.000000,0.000000,0.000000,0.000000,0.260696,0.000000,0.000000,0.000000,0.000000,0.000000,1.000000,0.023526,10.7913,1
1.5417,0.000000,0.000000,0.977683,0.000000,0.000000,0.056796,0.000000,0.000000,0.000000,0.000000,0.000000,0.000000,0.260895,0.000000,0.000000,0.000000,0.000000,0.000000,1.000000,0.022317,32.2077,1
1.5625,0.000000,0.000000,0.978829,0.000000,0.000000,0.053888,0.000000,0.000000,0.000000,0.000000,0.000000,0.000000,0.261085,0.000000,0.000000,0.000000,0.000000,0.000000,1.000000,0.021171,21.0855,1
1.5833,0.000000,0.000000,0.979918,0.000000,0.000000,0.051130,0.000000,0.000000,0.000000,0.000000,0.000000,0.000000,0.261265,0.000000,0.000000,0.000000,0.000000,0.000000,1.000000,0.020082,17.4839,1
1.6042,0.000000,0.000000,0.980950,0.000000,0.000000,0.048512,0.000000,0.000000,0.000000,0.000000,0.000000,0.000000,0.261435,0.000000,0.000000,0.000000,0.000000,0.000000,1.000000,0.019050,21.7538,1
1.6250,0.000000,0.000000,0.981930,0.000000,0.000000,0.046029,0.000000,0.000000,0.000000,0.000000,0.000000,0.000000,0.261597,0.000000,0.000000,0.000000,0.000000,0.000000,1.000000,0.018070,3.8970,1
1.6458,0.000000,0.000000,0.982859,0.000000,0.000000,0.043673,0.000000,0.000000,0.000000,0.000000,0.000000,0.000000,0.261751,0.000000,0.000000,0.000000,0.000000,0.000000,1.000000,0.017141,16.1216,1
1.6667,0.000000,0.000000,0.983741,0.000000,0.000000,0.041437,0.000000,0.000000,0.000000,0.000000,0.000000,0.000000,0.261896,0.000000,0.000000,0.000000,0.000000,0.000000,1.000000,0.016259,28.1658,1
1.6875,0.000000,0.000000,0.984578,0.000000,0.000000,0.039316,0.000000,0.000000,0.000000,0.000000,0.000000,0.000000,0.262035,0.000000,0.000000,0.000000,0.000000,0.000000,1.000000,0.015422,16.8848,1
1.7083,0.000000,0.000000,0.985372,0.000000,0.000000,0.037303,0.000000,0.000000,0.000000,0.000000,0.000000,0.000000,0.262166,0.000000,0.000000,0.000000,0.000000,0.000000,1.000000,0.014628,16.9954,1
1.7292,0.000000,0.000000,0.986125,0.000000,0.000000,0.035393,0.000000,0.000000,0.000000,0.000000,0.000000,0.000000,0.262291,0.000000,0.000000,0.000000,0.000000,0.000000,1.000000,0.013875,19.4516,1
1.7500,0.000000,0.000000,0.986840,0.000000,0.000000,0.033581,0.000000,0.000000,0.000000,0.000000,0.000000,0.000000,0.262409,0.000000,0.000000,0.000000,0.000000,0.000000,1.000000,0.013160,16.5641,1
1.7708,0.000000,0.000000,0.987518,0.000000,0.000000,0.031862,0.000000,0.000000,0.000000,0.000000,0.000000,0.000000,0.262521,0.000000,0.000000,0.000000,0.000000,0.000000,1.000000,0.012482,21.3971,1
1.7917,0.000000,0.000000,0.988161,0.000000,0.000000,0.030231,0.000000,0.000000,0.000000,0.000000,0.000000,0.000000,0.262627,0.000000,0.000000,0.000000,0.000000,0.000000,1.000000,0.011839,14.1711,1
1.8125,0.000000,0.000000,0.988772,0.000000,0.000000,0.028683,0.000000,0.000000,0.000000,0.000000,0.000000,0.000000,0.262728,0.000000,0.000000,0.000000,0.000000,0.000000,1.000000,0.011228,23.7415,1
1.8333,0.000000,0.000000,0.989351,0.000000,0.000000,0.027215,0.000000,0.000000,0.000000,0.000000,0.000000,0.000000,0.262824,0.000000,0.000000,0.000000,0.000000,0.000000,1.000000,0.010649,7.9854,1
1.8542,0.000000,0.000000,0.989901,0.000000,0.000000,0.025822,0.000000,0.000000,0.000000,0.000000,0.000000,0.000000,0.262915,0.000000,0.000000,0.000000,0.000000,0.000000,1.000000,0.010099,13.2220,1
1.8750,0.000000,0.000000,0.990422,0.000000,0.000000,0.024500,0.000000,0.000000,0.000000,0.000000,0.000000,0.000000,0.263001,0.000000,0.000000,0.000000,0.000000,0.000000,1.000000,0.009578,25.7356,1
1.8958,0.000000,0.000000,0.990917,0.000000,0.000000,0.023246,0.000000,0.000000,0.000000,0.000000,0.000000,0.000000,0.263083,0.000000,0.000000,0.000000,0.000000,0.000000,1.000000,0.009083,14.6990,1
1.9167,0.000000,0.000000,0.991386,0.000000,0.000000,0.022056,0.000000,0.000000,0.000000,0.000000,0.000000,0.000000,0.263160,0.000000,0.000000,0.000000,0.000000,0.000000,1.000000,0.008614,13.3691,1
1.9375,0.000000,0.000000,0.991831,0.000000,0.000000,0.020926,0.000000,0.000000,0.000000,0.000000,0.000000,0.000000,0.263234,0.000000,0.000000,0.000000,0.000000,0.000000,1.000000,0.008169,13.7167,1
1.9583,0.000000,0.000000,0.992254,0.000000,0.000000,0.019855,0.000000,0.000000,0.000000,0.000000,0.000000,0.000000,0.263304,0.000000,0.000000,0.000000,0.000000,0.000000,1.000000,0.007746,13.9394,1
1.9792,0.000000,0.000000,0.992655,0.000000,0.000000,0.018839,0.000000,0.000000,0.000000,0.000000,0.000000,0.000000,0.263370,0.000000,0.000000,0.000000,0.000000,0.000000,1.000000,0.007345,18.8529,1
2.0000,0.000000,0.000000,0.993035,0.000000,0.000000,0.017874,0.000000,0.000000,0.000000,0.000000,0.000000,0.000000,0.263433,0.000000,0.000000,0.000000,0.000000,0.000000,1.000000,0.006965,18.1966,1
2.0208,0.000000,0.000000,0.993396,0.000000,0.000000,0.016959,0.000000,0.000000,0.000000,0.000000,0.000000,0.000000,0.263493,0.000000,0.000000,0.000000,0.000000,0.000000,1.000000,0.006604,14.1926,1
2.0417,0.000000,0.000000,0.993739,0.000000,0.000000,0.016091,0.000000,0.000000,0.000000,0.000000,0.000000,0.000000,0.263550,0.000000,0.000000,0.000000,0.000000,0.000000,1.000000,0.006261,17.7877,1
2.0625,0.000000,0.000000,0.994064,0.000000,0.000000,0.015267,0.000000,0.000000,0.000000,0.000000,0.000000,0.000000,0.263603,0.000000,0.000000,0.000000,0.000000,0.000000,1.000000,0.005936,16.0935,1
2.0833,0.000000,0.000000,0.994372,0.000000,0.000000,0.014486,0.000000,0.000000,0.000000,0.000000,0.000000,0.000000,0.263654,0.000000,0.000000,0.000000,0.000000,0.000000,1.000000,0.005628,9.8841,1
2.1042,0.000000,0.000000,0.994665,0.000000,0.000000,0.013744,0.000000,0.000000,0.000000,0.000000,0.000000,0.000000,0.263703,0.000000,0.000000,0.000000,0.000000,0.000000,1.000000,0.005335,18.9040,1
2.1250,0.000000,0.000000,0.994942,0.000000,0.000000,0.013040,0.000000,0.000000,0.000000,0.000000,0.000000,0.000000,0.263749,0.000000,0.000000,0.000000,0.000000,0.000000,1.000000,0.005058,20.5057,1
2.1458,0.000000,0.000000,0.995205,0.000000,0.000000,0.012373,0.000000,0.000000,0.000000,0.000000,0.000000,0.000000,0.263792,0.000000,0.000000,0.000000,0.000000,0.000000,1.000000,0.004795,16.5267,1
2.1667,0.000000,0.000000,0.995455,0.000000,0.000000,0.011739,0.000000,0.000000,0.000000,0.000000,0.000000,0.000000,0.263834,0.000000,0.000000,0.000000,0.000000,0.000000,1.000000,0.004545,11.6475,1
2.1875,0.000000,0.000000,0.995692,0.000000,0.000000,0.011138,0.000000,0.000000,0.000000,0.000000,0.000000,0.000000,0.263873,0.000000,0.000000,0.000000,0.000000,0.000000,1.000000,0.004308,20.9210,1
2.2083,0.000000,0.000000,0.995917,0.000000,0.000000,0.010568,0.000000,0.000000,0.000000,0.000000,0.000000,0.000000,0.263910,0.000000,0.000000,0.000000,0.000000,0.000000,1.000000,0.004083,20.8943,1
2.2292,0.000000,0.000000,0.996131,0.000000,0.000000,0.010027,0.000000,0.000000,0.000000,0.000000,0.000000,0.000000,0.263945,0.000000,0.000000,0.000000,0.000000,0.000000,1.000000,0.003869,15.8844,1
2.2500,0.000000,0.000000,0.996333,0.000000,0.000000,0.009514,0.000000,0.000000,0.000000,0.000000,0.000000,0.000000,0.263979,0.000000,0.000000,0.000000,0.000000,0.000000,1.000000,0.003667,19.8634,1
2.2708,0.000000,0.000000,0.996525,0.000000,0.000000,0.009027,0.000000,0.000000,0.000000,0.000000,0.000000,0.000000,0.264011,0.000000,0.000000,0.000000,0.000000,0.000000,1.000000,0.003475,21.4961,1
2.2917,0.000000,0.000000,0.996708,0.000000,0.000000,0.008565,0.000000,0.000000,0.000000,0.000000,0.000000,0.000000,0.264041,0.000000,0.000000,0.000000,0.000000,0.000000,1.000000,0.003292,7.2138,1
2.3125,0.000000,0.000000,0.996880,0.000000,0.000000,0.008126,0.000000,0.000000,0.000000,0.000000,0.000000,0.000000,0.264070,0.000000,0.000000,0.000000,0.000000,0.000000,1.000000,0.003120,22.1779,1
2.3333,0.000000,0.000000,0.997045,0.000000,0.000000,0.007710,0.000000,0.000000,0.000000,0.000000,0.000000,0.000000,0.264097,0.000000,0.000000,0.000000,0.000000,0.000000,1.000000,0.002955,11.7295,1
2.3542,0.000000,0.000000,0.997200,0.000000,0.000000,0.007315,0.000000,0.000000,0.000000,0.000000,0.000000,0.000000,0.264122,0.000000,0.000000,0.000000,0.000000,0.000000,1.000000,0.002800,19.9413,1
2.3750,0.000000,0.000000,0.997348,0.000000,0.000000,0.006941,0.000000,0.000000,0.000000,0.000000,0.000000,0.000000,0.264147,0.000000,0.000000,0.000000,0.000000,0.000000,1.000000,0.002652,13.8440,1
2.3958,0.000000,0.000000,0.997488,0.000000,0.000000,0.006585,0.000000,0.000000,0.000000,0.000000,0.000000,0.000000,0.264170,0.000000,0.000000,0.000000,0.000000,0.000000,1.000000,0.002512,18.0545,1
2.4167,0.000000,0.000000,0.997621,0.000000,0.000000,0.006248,0.000000,0.000000,0.000000,0.000000,0.000000,0.000000,0.264192,0.000000,0.000000,0.000000,0.000000,0.000000,1.000000,0.002379,15.1873,1
2.4375,0.000000,0.000000,0.997747,0.000000,0.000000,0.005928,0.000000,0.000000,0.000000,0.000000,0.000000,0.000000,0.264213,0.000000,0.000000,0.000000,0.000000,0.000000,1.000000,0.002253,17.4477,1
2.4583,0.000000,0.000000,0.997867,0.000000,0.000000,0.005625,0.000000,0.000000,0.000000,0.000000,0.000000,0.000000,0.264233,0.000000,0.000000,0.000000,0.000000,0.000000,1.000000,0.002133,15.1339,1
2.4792,0.000000,0.000000,0.997981,0.000000,0.000000,0.005337,0.000000,0.000000,0.000000,0.000000,0.000000,0.000000,0.264252,0.000000,0.000000,0.000000,0.000000,0.000000,1.000000,0.002019,19.0783,1
2.5000,0.000000,0.000000,0.998088,0.000000,0.000000,0.005064,0.000000,0.000000,0.000000,0.000000,0.000000,0.000000,0.264269,0.000000,0.000000,0.000000,0.000000,0.000000,1.000000,0.001912,16.6130,1
2.5208,0.000000,0.000000,0.998191,0.000000,0.000000,0.004804,0.000000,0.000000,0.000000,0.000000,0.000000,0.000000,0.264286,0.000000,0.000000,0.000000,0.000000,0.000000,1.000000,0.001809,12.1734,1
2.5417,0.000000,0.000000,0.998288,0.000000,0.000000,0.004559,0.000000,0.000000,0.000000,0.000000,0.000000,0.000000,0.264302,0.000000,0.000000,0.000000,0.000000,0.000000,1.000000,0.001712,18.8115,1
2.5625,0.000000,0.000000,0.998380,0.000000,0.000000,0.004325,0.000000,0.000000,0.000000,0.000000,0.000000,0.000000,0.264318,0.000000,0.000000,0.000000,0.000000,0.000000,1.000000,0.001620,15.9490,1
2.5833,0.000000,0.000000,0.998467,0.000000,0.000000,0.004104,0.000000,0.000000,0.000000,0.000000,0.000000,0.000000,0.264332,0.000000,0.000000,0.000000,0.000000,0.000000,1.000000,0.001533,19.0284,1
2.6042,0.000000,0.000000,0.998550,0.000000,0.000000,0.003894,0.000000,0.000000,0.000000,0.000000,0.000000,0.000000,0.264346,0.000000,0.000000,0.000000,0.000000,0.000000,1.000000,0.001450,19.2692,1
2.6250,0.000000,0.000000,0.998629,0.000000,0.000000,0.003694,0.000000,0.000000,0.000000,0.000000,0.000000,0.000000,0.264359,0.000000,0.000000,0.000000,0.000000,0.000000,1.000000,0.001371,8.4424,1
2.6458,0.000000,0.000000,0.998703,0.000000,0.000000,0.003505,0.000000,0.000000,0.000000,0.000000,0.000000,0.000000,0.264371,0.000000,0.000000,0.000000,0.000000,0.000000,1.000000,0.001297,19.0351,1
2.6667,0.000000,0.000000,0.998774,0.000000,0.000000,0.003326,0.000000,0.000000,0.000000,0.000000,0.000000,0.000000,0.264383,0.000000,0.000000,0.000000,0.000000,0.000000,1.000000,0.001226,14.3807,1
2.6875,0.000000,0.000000,0.998841,0.000000,0.000000,0.003155,0.000000,0.000000,0.000000,0.000000,0.000000,0.000000,0.264394,0.000000,0.000000,0.000000,0.000000,0.000000,1.000000,0.001159,21.9316,1
2.7083,0.000000,0.000000,0.998905,0.000000,0.000000,0.002994,0.000000,0.000000,0.000000,0.000000,0.000000,0.000000,0.264405,0.000000,0.000000,0.000000,0.000000,0.000000,1.000000,0.001095,11.4129,1
2.7292,0.000000,0.000000,0.998965,0.000000,0.000000,0.002841,0.000000,0.000000,0.000000,0.000000,0.000000,0.000000,0.264415,0.000000,0.000000,0.000000,0.000000,0.000000,1.000000,0.001035,16.3305,1
2.7500,0.000000,0.000000,0.999023,0.000000,0.000000,0.002695,0.000000,0.000000,0.000000,0.000000,0.000000,0.000000,0.264424,0.000000,0.000000,0.000000,0.000000,0.000000,1.000000,0.000977,29.9280,1
2.7708,0.000000,0.000000,0.999077,0.000000,0.000000,0.002557,0.000000,0.000000,0.000000,0.000000,0.000000,0.000000,0.264433,0.000000,0.000000,0.000000,0.000000,0.000000,1.000000,0.000923,25.7678,1
2.7917,0.000000,0.000000,0.999129,0.000000,0.000000,0.002426,0.000000,0.000000,0.000000,0.000000,0.000000,0.000000,0.264442,0.000000,0.000000,0.000000,0.000000,0.000000,1.000000,0.000871,17.0064,1
2.8125,0.000000,0.000000,0.999178,0.000000,0.000000,0.002302,0.000000,0.000000,0.000000,0.000000,0.000000,0.000000,0.264450,0.000000,0.000000,0.000000,0.000000,0.000000,1.000000,0.000822,8.0340,1
2.8333,0.000000,0.000000,0.999224,0.000000,0.000000,0.002184,0.000000,0.000000,0.000000,0.000000,0.000000,0.000000,0.264457,0.000000,0.000000,0.000000,0.000000,0.000000,1.000000,0.000776,6.7985,1
2.8542,0.000000,0.000000,0.999268,0.000000,0.000000,0.002072,0.000000,0.000000,0.000000,0.000000,0.000000,0.000000,0.264465,0.000000,0.000000,0.000000,0.000000,0.000000,1.000000,0.000732,27.8835,1
2.8750,0.000000,0.000000,0.999310,0.000000,0.000000,0.001966,0.000000,0.000000,0.000000,0.000000,0.000000,0.000000,0.264472,0.000000,0.000000,0.000000,0.000000,0.000000,1.000000,0.000690,17.7457,1
2.8958,0.000000,0.000000,0.999350,0.000000,0.000000,0.001866,0.000000,0.000000,0.000000,0.000000,0.000000,0.000000,0.264478,0.000000,0.000000,0.000000,0.000000,0.000000,1.000000,0.000650,16.7160,1
2.9167,0.000000,0.000000,0.999387,0.000000,0.000000,0.001770,0.000000,0.000000,0.000000,0.000000,0.000000,0.000000,0.264484,0.000000,0.000000,0.000000,0.000000,0.000000,1.000000,0.000613,18.8057,1
2.9375,0.000000,0.000000,0.999423,0.000000,0.000000,0.001679,0.000000,0.000000,0.000000,0.000000,0.000000,0.000000,0.264490,0.000000,0.000000,0.000000,0.000000,0.000000,1.000000,0.000577,15.8777,1
2.9583,0.000000,0.000000,0.999457,0.000000,0.000000,0.001593,0.000000,0.000000,0.000000,0.000000,0.000000,0.000000,0.264496,0.000000,0.000000,0.000000,0.000000,0.000000,1.000000,0.000543,14.5619,1
2.9792,0.000000,0.000000,0.999489,0.000000,0.000000,0.001512,0.000000,0.000000,0.000000,0.000000,0.000000,0.000000,0.264501,0.000000,0.000000,0.000000,0.000000,0.000000,1.000000,0.000511,18.2455,1
3.0000,0.000000,0.000000,0.999520,0.000000,0.000000,0.001435,0.000000,0.000000,0.000000,0.000000,0.000000,0.000000,0.264506,0.000000,0.000000,0.000000,0.000000,0.000000,1.000000,0.000480,17.2119,1
3.0208,0.000000,0.000000,0.999549,0.000000,0.000000,0.001361,0.000000,0.000000,0.000000,0.000000,0.000000,0.000000,0.264511,0.000000,0.000000,0.000000,0.000000,0.000000,1.000000,0.000451,17.5185,1
3.0417,0.000000,0.000000,0.999576,0.000000,0.000000,0.001291,0.000000,0.000000,0.000000,0.000000,0.000000,0.000000,0.264516,0.000000,0.000000,0.000000,0.000000,0.000000,1.000000,0.000424,16.7506,1
3.0625,0.000000,0.000000,0.999602,0.000000,0.000000,0.001225,0.000000,0.000000,0.000000,0.000000,0.000000,0.000000,0.264520,0.000000,0.000000,0.000000,0.000000,0.000000,1.000000,0.000398,16.2566,1
3.0833,0.000000,0.000000,0.999627,0.000000,0.000000,0.001163,0.000000,0.000000,0.000000,0.000000,0.000000,0.000000,0.264524,0.000000,0.000000,0.000000,0.000000,0.000000,1.000000,0.000373,12.8927,1
3.1042,0.000000,0.000000,0.999651,0.000000,0.000000,0.001103,0.000000,0.000000,0.000000,0.000000,0.000000,0.000000,0.264528,0.000000,0.000000,0.000000,0.000000,0.000000,1.000000,0.000349,16.5906,1
3.1250,0.000000,0.000000,0.999673,0.000000,0.000000,0.001047,0.000000,0.000000,0.000000,0.000000,0.000000,0.000000,0.264532,0.000000,0.000000,0.000000,0.000000,0.000000,1.000000,0.000327,17.9076,1
3.1458,0.000000,0.000000,0.999694,0.000000,0.000000,0.000993,0.000000,0.000000,0.000000,0.000000,0.000000,0.000000,0.264535,0.000000,0.000000,0.000000,0.000000,0.000000,1.000000,0.000306,10.1137,1
3.1667,0.000000,0.000000,0.999714,0.000000,0.000000,0.000942,0.000000,0.000000,0.000000,0.000000,0.000000,0.000000,0.264538,0.000000,0.000000,0.000000,0.000000,0.000000,1.000000,0.000286,16.8216,1
3.1875,0.000000,0.000000,0.999733,0.000000,0.000000,0.000894,0.000000,0.000000,0.000000,0.000000,0.000000,0.000000,0.264542,0.000000,0.000000,0.000000,0.000000,0.000000,1.000000,0.000267,20.5410,1
3.2083,0.000000,0.000000,0.999751,0.000000,0.000000,0.000848,0.000000,0.000000,0.000000,0.000000,0.000000,0.000000,0.264545,0.000000,0.000000,0.000000,0.000000,0.000000,1.000000,0.000249,13.8037,1
3.2292,0.000000,0.000000,0.999768,0.000000,0.000000,0.000805,0.000000,0.000000,0.000000,0.000000,0.000000,0.000000,0.264547,0.000000,0.000000,0.000000,0.000000,0.000000,1.000000,0.000232,16.0191,1
3.2500,0.000000,0.000000,0.999784,0.000000,0.000000,0.000764,0.000000,0.000000,0.000000,0.000000,0.000000,0.000000,0.264550,0.000000,0.000000,0.000000,0.000000,0.000000,1.000000,0.000216,16.9730,1
3.2708,0.000000,0.000000,0.999800,0.000000,0.000000,0.000724,0.000000,0.000000,0.000000,0.000000,0.000000,0.000000,0.264553,0.000000,0.000000,0.000000,0.000000,0.000000,1.000000,0.000200,18.4388,1
3.2917,0.000000,0.000000,0.999815,0.000000,0.000000,0.000687,0.000000,0.000000,0.000000,0.000000,0.000000,0.000000,0.264555,0.000000,0.000000,0.000000,0.000000,0.000000,1.000000,0.000185,11.2195,1
3.3125,0.000000,0.000000,0.999828,0.000000,0.000000,0.000652,0.000000,0.000000,0.000000,0.000000,0.000000,0.000000,0.264557,0.000000,0.000000,0.000000,0.000000,0.000000,1.000000,0.000172,22.6152,1
3.3333,0.000000,0.000000,0.999842,0.000000,0.000000,0.000619,0.000000,0.000000,0.000000,0.000000,0.000000,0.000000,0.264560,0.000000,0.000000,0.000000,0.000000,0.000000,1.000000,0.000158,15.7304,1
3.3542,0.000000,0.000000,0.999854,0.000000,0.000000,0.000587,0.000000,0.000000,0.000000,0.000000,0.000000,0.000000,0.264562,0.000000,0.000000,0.000000,0.000000,0.000000,1.000000,0.000146,18.4610,1
3.3750,0.000000,0.000000,0.999866,0.000000,0.000000,0.000557,0.000000,0.000000,0.000000,0.000000,0.000000,0.000000,0.264564,0.000000,0.000000,0.000000,0.000000,0.000000,1.000000,0.000134,13.3748,1
3.3958,0.000000,0.000000,0.999877,0.000000,0.000000,0.000529,0.000000,0.000000,0.000000,0.000000,0.000000,0.000000,0.264565,0.000000,0.000000,0.000000,0.000000,0.000000,1.000000,0.000123,11.3742,1
3.4167,0.000000,0.000000,0.999888,0.000000,0.000000,0.000501,0.000000,0.000000,0.000000,0.000000,0.000000,0.000000,0.264567,0.000000,0.000000,0.000000,0.000000,0.000000,1.000000,0.000112,21.5592,1
3.4375,0.000000,0.000000,0.999898,0.000000,0.000000,0.000476,0.000000,0.000000,0.000000,0.000000,0.000000,0.000000,0.264569,0.000000,0.000000,0.000000,0.000000,0.000000,1.000000,0.000102,11.6632,1
3.4583,0.000000,0.000000,0.999908,0.000000,0.000000,0.000451,0.000000,0.000000,0.000000,0.000000,0.000000,0.000000,0.264571,0.000000,0.000000,0.000000,0.000000,0.000000,1.000000,0.000092,16.5825,1
3.4792,0.000000,0.000000,0.999917,0.000000,0.000000,0.000428,0.000000,0.000000,0.000000,0.000000,0.000000,0.000000,0.264572,0.000000,0.000000,0.000000,0.000000,0.000000,1.000000,0.000083,13.4153,1
3.5000,0.000000,0.000000,0.999925,0.000000,0.000000,0.000406,0.000000,0.000000,0.000000,0.000000,0.000000,0.000000,0.264573,0.000000,0.000000,0.000000,0.000000,0.000000,1.000000,0.000075,16.5472,1
3.5208,0.000000,0.000000,0.999934,0.000000,0.000000,0.000386,0.000000,0.000000,0.000000,0.000000,0.000000,0.000000,0.264575,0.000000,0.000000,0.000000,0.000000,0.000000,1.000000,0.000066,5.9330,1
3.5417,0.000000,0.000000,0.999941,0.000000,0.000000,0.000366,0.000000,0.000000,0.000000,0.000000,0.000000,0.000000,0.264576,0.000000,0.000000,0.000000,0.000000,0.000000,1.000000,0.000059,17.8535,1
3.5625,0.000000,0.000000,0.999949,0.000000,0.000000,0.000347,0.000000,0.000000,0.000000,0.000000,0.000000,0.000000,0.264577,0.000000,0.000000,0.000000,0.000000,0.000000,1.000000,0.000051,0.0000,1
3.5833,0.000000,0.000000,0.999956,0.000000,0.000000,0.000329,0.000000,0.000000,0.000000,0.000000,0.000000,0.000000,0.264578,0.000000,0.000000,0.000000,0.000000,0.000000,1.000000,0.000044,15.2204,1
3.6042,0.000000,0.000000,0.999962,0.000000,0.000000,0.000312,0.000000,0.000000,0.000000,0.000000,0.000000,0.000000,0.264580,0.000000,0.000000,0.000000,0.000000,0.000000,1.000000,0.000038,16.8769,1
3.6250,0.000000,0.000000,0.999969,0.000000,0.000000,0.000296,0.000000,0.000000,0.000000,0.000000,0.000000,0.000000,0.264581,0.000000,0.000000,0.000000,0.000000,0.000000,1.000000,0.000031,17.7941,1
3.6458,0.000000,0.000000,0.999975,0.000000,0.000000,0.000281,0.000000,0.000000,0.000000,0.000000,0.000000,0.000000,0.264582,0.000000,0.000000,0.000000,0.000000,0.000000,1.000000,0.000025,13.1536,1
3.6667,0.000000,0.000000,0.999980,0.000000,0.000000,0.000267,0.000000,0.000000,0.000000,0.000000,0.000000,0.000000,0.264583,0.000000,0.000000,0.000000,0.000000,0.000000,1.000000,0.000020,22.3370,1
3.6875,0.000000,0.000000,0.999986,0.000000,0.000000,0.000253,0.000000,0.000000,0.000000,0.000000,0.000000,0.000000,0.264583,0.000000,0.000000,0.000000,0.000000,0.000000,1.000000,0.000014,16.0935,1
3.7083,0.000000,0.000000,0.999991,0.000000,0.000000,0.000240,0.000000,0.000000,0.000000,0.000000,0.000000,0.000000,0.264584,0.000000,0.000000,0.000000,0.000000,0.000000,1.000000,0.000009,17.4117,1
3.7292,0.000000,0.000000,0.999996,0.000000,0.000000,0.000228,0.000000,0.000000,0.000000,0.000000,0.000000,0.000000,0.264585,0.000000,0.000000,0.000000,0.000000,0.000000,1.000000,0.000004,13.9065,1
3.7500,0.000000,0.000000,1.000000,0.000000,0.000000,0.000216,0.000000,0.000000,0.000000,0.000000,0.000000,0.000000,0.264586,0.000000,0.000000,0.000000,0.000000,0.000000,1.000000,0.000000,21.8136,1
3.7708,0.000000,0.000000,1.000005,0.000000,0.000000,0.000205,0.000000,0.000000,0.000000,0.000000,0.000000,0.000000,0.264587,0.000000,0.000000,0.000000,0.000000,0.000000,1.000000,0.000005,7.8583,1
3.7917,0.000000,0.000000,1.000009,0.000000,0.000000,0.000195,0.000000,0.000000,0.000000,0.000000,0.000000,0.000000,0.264587,0.000000,0.000000,0.000000,0.000000,0.000000,1.000000,0.000009,16.4888,1
3.8125,0.000000,0.000000,1.000013,0.000000,0.000000,0.000185,0.000000,0.000000,0.000000,0.000000,0.000000,0.000000,0.264588,0.000000,0.000000,0.000000,0.000000,0.000000,1.000000,0.000013,23.8590,1
3.8333,0.000000,0.000000,1.000017,0.000000,0.000000,0.000175,0.000000,0.000000,0.000000,0.000000,0.000000,0.000000,0.264589,0.000000,0.000000,0.000000,0.000000,0.000000,1.000000,0.000017,17.9307,1
3.8542,0.000000,0.000000,1.000020,0.000000,0.000000,0.000166,0.000000,0.000000,0.000000,0.000000,0.000000,0.000000,0.264589,0.000000,0.000000,0.000000,0.000000,0.000000,1.000000,0.000020,14.9109,1
3.8750,0.000000,0.000000,1.000023,0.000000,0.000000,0.000158,0.000000,0.000000,0.000000,0.000000,0.000000,0.000000,0.264590,0.000000,0.000000,0.000000,0.000000,0.000000,1.000000,0.000023,16.7453,1
3.8958,0.000000,0.000000,1.000027,0.000000,0.000000,0.000150,0.000000,0.000000,0.000000,0.000000,0.000000,0.000000,0.264590,0.000000,0.000000,0.000000,0.000000,0.000000,1.000000,0.000027,8.4116,1
3.9167,0.000000,0.000000,1.000030,0.000000,0.000000,0.000142,0.000000,0.000000,0.000000,0.000000,0.000000,0.000000,0.264591,0.000000,0.000000,0.000000,0.000000,0.000000,1.000000,0.000030,22.1317,1
3.9375,0.000000,0.000000,1.000032,0.000000,0.000000,0.000135,0.000000,0.000000,0.000000,0.000000,0.000000,0.000000,0.264591,0.000000,0.000000,0.000000,0.000000,0.000000,1.000000,0.000032,11.4405,1
3.9583,0.000000,0.000000,1.000035,0.000000,0.000000,0.000128,0.000000,0.000000,0.000000,0.000000,0.000000,0.000000,0.264592,0.000000,0.000000,0.000000,0.000000,0.000000,1.000000,0.000035,19.4550,1
3.9792,0.000000,0.000000,1.000038,0.000000,0.000000,0.000121,0.000000,0.000000,0.000000,0.000000,0.000000,0.000000,0.264592,0.000000,0.000000,0.000000,0.000000,0.000000,1.000000,0.000038,17.3874,1
4.0000,0.000000,0.000000,1.000040,0.000000,0.000000,0.000115,0.000000,0.000000,0.000000,0.000000,0.000000,0.000000,0.264592,0.000000,0.000000,0.000000,0.000000,0.000000,1.000000,0.000040,12.7246,1
4.0208,0.000000,0.000000,1.000043,0.000000,0.000000,0.000109,0.000000,0.000000,0.000000,0.000000,0.000000,0.000000,0.264593,0.000000,0.000000,0.000000,0.000000,0.000000,1.000000,0.000043,19.8896,1
4.0417,0.000000,0.000000,1.000045,0.000000,0.000000,0.000104,0.000000,0.000000,0.000000,0.000000,0.000000,0.000000,0.264593,0.000000,0.000000,0.000000,0.000000,0.000000,1.000000,0.000045,14.3609,1
4.0625,0.000000,0.000000,1.000047,0.000000,0.000000,0.000098,0.000000,0.000000,0.000000,0.000000,0.000000,0.000000,0.264594,0.000000,0.000000,0.000000,0.000000,0.000000,1.000000,0.000047,12.9461,1
4.0833,0.000000,0.000000,1.000049,0.000000,0.000000,0.000093,0.000000,0.000000,0.000000,0.000000,0.000000,0.000000,0.264594,0.000000,0.000000,0.000000,0.000000,0.000000,1.000000,0.000049,0.0000,1
4.1042,0.000000,0.000000,1.000051,0.000000,0.000000,0.000089,0.000000,0.000000,0.000000,0.000000,0.000000,0.000000,0.264594,0.000000,0.000000,0.000000,0.000000,0.000000,1.000000,0.000051,22.6328,1
4.1250,0.000000,0.000000,1.000053,0.000000,0.000000,0.000084,0.000000,0.000000,0.000000,0.000000,0.000000,0.000000,0.264595,0.000000,0.000000,0.000000,0.000000,0.000000,1.000000,0.000053,23.0811,1
4.1458,0.000000,0.000000,1.000054,0.000000,0.000000,0.000080,0.000000,0.000000,0.000000,0.000000,0.000000,0.000000,0.264595,0.000000,0.000000,0.000000,0.000000,0.000000,1.000000,0.000054,2.6822,1
4.1667,0.000000,0.000000,1.000056,0.000000,0.000000,0.000076,0.000000,0.000000,0.000000,0.000000,0.000000,0.000000,0.264595,0.000000,0.000000,0.000000,0.000000,0.000000,1.000000,0.000056,28.4266,1
4.1875,0.000000,0.000000,1.000057,0.000000,0.000000,0.000072,0.000000,0.000000,0.000000,0.000000,0.000000,0.000000,0.264595,0.000000,0.000000,0.000000,0.000000,0.000000,1.000000,0.000057,5.2972,1
4.2083,0.000000,0.000000,1.000059,0.000000,0.000000,0.000068,0.000000,0.000000,0.000000,0.000000,0.000000,0.000000,0.264596,0.000000,0.000000,0.000000,0.000000,0.000000,1.000000,0.000059,21.9243,1
4.2292,0.000000,0.000000,1.000060,0.000000,0.000000,0.000065,0.000000,0.000000,0.000000,0.000000,0.000000,0.000000,0.264596,0.000000,0.000000,0.000000,0.000000,0.000000,1.000000,0.000060,25.8055,1
4.2500,0.000000,0.000000,1.000061,0.000000,0.000000,0.000061,0.000000,0.000000,0.000000,0.000000,0.000000,0.000000,0.264596,0.000000,0.000000,0.000000,0.000000,0.000000,1.000000,0.000061,18.4948,1
4.2708,0.000000,0.000000,1.000063,0.000000,0.000000,0.000058,0.000000,0.000000,0.000000,0.000000,0.000000,0.000000,0.264596,0.000000,0.000000,0.000000,0.000000,0.000000,1.000000,0.000063,13.4976,1
4.2917,0.000000,0.000000,1.000064,0.000000,0.000000,0.000055,0.000000,0.000000,0.000000,0.000000,0.000000,0.000000,0.264596,0.000000,0.000000,0.000000,0.000000,0.000000,1.000000,0.000064,13.6652,1
4.3125,0.000000,0.000000,1.000065,0.000000,0.000000,0.000052,0.000000,0.000000,0.000000,0.000000,0.000000,0.000000,0.264597,0.000000,0.000000,0.000000,0.000000,0.000000,1.000000,0.000065,6.4394,1
4.3333,0.000000,0.000000,1.000066,0.000000,0.000000,0.000050,0.000000,0.000000,0.000000,0.000000,0.000000,0.000000,0.264597,0.000000,0.000000,0.000000,0.000000,0.000000,1.000000,0.000066,11.8010,1
4.3542,0.000000,0.000000,1.000067,0.000000,0.000000,0.000047,0.000000,0.000000,0.000000,0.000000,0.000000,0.000000,0.264597,0.000000,0.000000,0.000000,0.000000,0.000000,1.000000,0.000067,28.1334,1
4.3750,0.000000,0.000000,1.000068,0.000000,0.000000,0.000045,0.000000,0.000000,0.000000,0.000000,0.000000,0.000000,0.264597,0.000000,0.000000,0.000000,0.000000,0.000000,1.000000,0.000068,4.7927,1
4.3958,0.000000,0.000000,1.000069,0.000000,0.000000,0.000042,0.000000,0.000000,0.000000,0.000000,0.000000,0.000000,0.264597,0.000000,0.000000,0.000000,0.000000,0.000000,1.000000,0.000069,26.4089,1
4.4167,0.000000,0.000000,1.000070,0.000000,0.000000,0.000040,0.000000,0.000000,0.000000,0.000000,0.000000,0.000000,0.264597,0.000000,0.000000,0.000000,0.000000,0.000000,1.000000,0.000070,17.6866,1
4.4375,0.000000,0.000000,1.000071,0.000000,0.000000,0.000038,0.000000,0.000000,0.000000,0.000000,0.000000,0.000000,0.264598,0.000000,0.000000,0.000000,0.000000,0.000000,1.000000,0.000071,15.2993,1
4.4583,0.000000,0.000000,1.000071,0.000000,0.000000,0.000036,0.000000,0.000000,0.000000,0.000000,0.000000,0.000000,0.264598,0.000000,0.000000,0.000000,0.000000,0.000000,1.000000,0.000071,5.0504,1
4.4792,0.000000,0.000000,1.000072,0.000000,0.000000,0.000034,0.000000,0.000000,0.000000,0.000000,0.000000,0.000000,0.264598,0.000000,0.000000,0.000000,0.000000,0.000000,1.000000,0.000072,27.3180,1
4.5000,0.000000,0.000000,1.000073,0.000000,0.000000,0.000033,0.000000,0.000000,0.000000,0.000000,0.000000,0.000000,0.264598,0.000000,0.000000,0.000000,0.000000,0.000000,1.000000,0.000073,18.6536,1
4.5208,0.000000,0.000000,1.000073,0.000000,0.000000,0.000031,0.000000,0.000000,0.000000,0.000000,0.000000,0.000000,0.264598,0.000000,0.000000,0.000000,0.000000,0.000000,1.000000,0.000073,10.2251,1
4.5417,0.000000,0.000000,1.000074,0.000000,0.000000,0.000029,0.000000,0.000000,0.000000,0.000000,0.000000,0.000000,0.264598,0.000000,0.000000,0.000000,0.000000,0.000000,1.000000,0.000074,6.7117,1
4.5625,0.000000,0.000000,1.000075,0.000000,0.000000,0.000028,0.000000,0.000000,0.000000,0.000000,0.000000,0.000000,0.264598,0.000000,0.000000,0.000000,0.000000,0.000000,1.000000,0.000075,11.6782,1
4.5833,0.000000,0.000000,1.000075,0.000000,0.000000,0.000026,0.000000,0.000000,0.000000,0.000000,0.000000,0.000000,0.264598,0.000000,0.000000,0.000000,0.000000,0.000000,1.000000,0.000075,22.0423,1
4.6042,0.000000,0.000000,1.000076,0.000000,0.000000,0.000025,0.000000,0.000000,0.000000,0.000000,0.000000,0.000000,0.264598,0.000000,0.000000,0.000000,0.000000,0.000000,1.000000,0.000076,23.3178,1
4.6250,0.000000,0.000000,1.000076,0.000000,0.000000,0.000024,0.000000,0.000000,0.000000,0.000000,0.000000,0.000000,0.264598,0.000000,0.000000,0.000000,0.000000,0.000000,1.000000,0.000076,16.8662,1
4.6458,0.000000,0.000000,1.000077,0.000000,0.000000,0.000023,0.000000,0.000000,0.000000,0.000000,0.000000,0.000000,0.264599,0.000000,0.000000,0.000000,0.000000,0.000000,1.000000,0.000077,7.4029,1
4.6667,0.000000,0.000000,1.000077,0.000000,0.000000,0.000021,0.000000,0.000000,0.000000,0.000000,0.000000,0.000000,0.264599,0.000000,0.000000,0.000000,0.000000,0.000000,1.000000,0.000077,12.1648,1
4.6875,0.000000,0.000000,1.000078,0.000000,0.000000,0.000020,0.000000,0.000000,0.000000,0.000000,0.000000,0.000000,0.264599,0.000000,0.000000,0.000000,0.000000,0.000000,1.000000,0.000078,24.6501,1
4.7083,0.000000,0.000000,1.000078,0.000000,0.000000,0.000019,0.000000,0.000000,0.000000,0.000000,0.000000,0.000000,0.264599,0.000000,0.000000,0.000000,0.000000,0.000000,1.000000,0.000078,12.5926,1
4.7292,0.000000,0.000000,1.000078,0.000000,0.000000,0.000018,0.000000,0.000000,0.000000,0.000000,0.000000,0.000000,0.264599,0.000000,0.000000,0.000000,0.000000,0.000000,1.000000,0.000078,21.1093,1
4.7500,0.000000,0.000000,1.000079,0.000000,0.000000,0.000017,0.000000,0.000000,0.000000,0.000000,0.000000,0.000000,0.264599,0.000000,0.000000,0.000000,0.000000,0.000000,1.000000,0.000079,7.9024,1
4.7708,0.000000,0.000000,1.000079,0.000000,0.000000,0.000016,0.000000,0.000000,0.000000,0.000000,0.000000,0.000000,0.264599,0.000000,0.000000,0.000000,0.000000,0.000000,1.000000,0.000079,23.9508,1
4.7917,0.000000,0.000000,1.000079,0.000000,0.000000,0.000016,0.000000,0.000000,0.000000,0.000000,0.000000,0.000000,0.264599,0.000000,0.000000,0.000000,0.000000,0.000000,1.000000,0.000079,15.5385,1
4.8125,0.000000,0.000000,1.000080,0.000000,0.000000,0.000015,0.000000,0.000000,0.000000,0.000000,0.000000,0.000000,0.264599,0.000000,0.000000,0.000000,0.000000,0.000000,1.000000,0.000080,19.0725,1
4.8333,0.000000,0.000000,1.000080,0.000000,0.000000,0.000014,0.000000,0.000000,0.000000,0.000000,0.000000,0.000000,0.264599,0.000000,0.000000,0.000000,0.000000,0.000000,1.000000,0.000080,16.2311,1
4.8542,0.000000,0.000000,1.000080,0.000000,0.000000,0.000013,0.000000,0.000000,0.000000,0.000000,0.000000,0.000000,0.264599,0.000000,0.000000,0.000000,0.000000,0.000000,1.000000,0.000080,19.4776,1
4.8750,0.000000,0.000000,1.000081,0.000000,0.000000,0.000013,0.000000,0.000000,0.000000,0.000000,0.000000,0.000000,0.264599,0.000000,0.000000,0.000000,0.000000,0.000000,1.000000,0.000081,5.4772,1
4.8958,0.000000,0.000000,1.000081,0.000000,0.000000,0.000012,0.000000,0.000000,0.000000,0.000000,0.000000,0.000000,0.264599,0.000000,0.000000,0.000000,0.000000,0.000000,1.000000,0.000081,23.4540,1
4.9167,0.000000,0.000000,1.000081,0.000000,0.000000,0.000011,0.000000,0.000000,0.000000,0.000000,0.000000,0.000000,0.264599,0.000000,0.000000,0.000000,0.000000,0.000000,1.000000,0.000081,17.2987,1
4.9375,0.000000,0.000000,1.000081,0.000000,0.000000,0.000011,0.000000,0.000000,0.000000,0.000000,0.000000,0.000000,0.264599,0.000000,0.000000,0.000000,0.000000,0.000000,1.000000,0.000081,17.1301,1
4.9583,0.000000,0.000000,1.000082,0.000000,0.000000,0.000010,0.000000,0.000000,0.000000,0.000000,0.000000,0.000000,0.264599,0.000000,0.000000,0.000000,0.000000,0.000000,1.000000,0.000082,3.0980,1
4.9792,0.000000,0.000000,1.000082,0.000000,0.000000,0.000010,0.000000,0.000000,0.000000,0.000000,0.000000,0.000000,0.264599,0.000000,0.000000,0.000000,0.000000,0.000000,1.000000,0.000082,29.2861,1
5.0000,0.000000,0.000000,1.000082,0.000000,0.000000,0.000009,0.000000,0.000000,0.000000,0.000000,0.000000,0.000000,0.264599,0.000000,0.000000,0.000000,0.000000,0.000000,1.000000,0.000082,8.7564,1
