Time_s,Pos_X_m,Pos_Y_m,Pos_Z_m,Vel_X_ms,Vel_Y_ms,Vel_Z_ms,Roll_rad,Pitch_rad,Yaw_rad,AngVel_P_rads,AngVel_Q_rads,AngVel_R_rads,Thrust_N,Roll_Rate_Cmd_rads,Pitch_Rate_Cmd_rads,Yaw_Rate_Cmd_rads,Ref_X_m,Ref_Y_m,Ref_Z_m,Position_Error_m,Solve_Time_ms,Solve_Success
0.0000,0.000000,0.000000,0.100000,0.000000,0.000000,0.000000,0.000000,0.000000,0.000000,0.000000,0.000000,0.000000,0.600000,-1.464499,1.535037,0.004371,0.000000,0.000000,1.000000,0.900000,154.7031,1
0.0208,0.000001,0.000001,0.103133,0.000121,0.000121,0.250634,-0.001989,0.001988,-0.001153,-0.158993,0.159149,-0.092095,0.600000,-1.200604,1.268039,0.070877,0.006545,0.006544,1.000000,0.896914,35.2399,1
0.0417,0.000016,0.000016,0.111496,0.001413,0.001409,0.501892,-0.006667,0.006654,-0.003878,-0.267242,0.268119,-0.154978,0.600000,-0.934242,0.995602,0.125659,0.013088,0.013084,1.000000,0.888696,40.1690,1
0.0625,0.000086,0.000086,0.125100,0.005019,0.004990,0.753629,-0.013003,0.012950,-0.007598,-0.325768,0.327903,-0.189239,0.600000,-0.682639,0.737063,0.166175,0.019630,0.019615,1.000000,0.875336,50.6589,1
0.0833,0.000268,0.000266,0.143951,0.011619,0.011508,1.005619,-0.020024,0.019898,-0.011757,-0.338956,0.342589,-0.197336,0.600000,-0.462313,0.510799,0.191275,0.026168,0.026132,1.000000,0.856831,47.3919,1
0.1042,0.000628,0.000622,0.168047,0.021468,0.021178,1.257139,-0.027171,0.026940,-0.016032,-0.337743,0.342909,-0.197121,0.600000,-0.266579,0.310689,0.211290,0.032702,0.032632,1.000000,0.833186,57.0774,1
0.1250,0.001234,0.001218,0.197372,0.034607,0.033998,1.507772,-0.034324,0.033959,-0.020354,-0.336529,0.343222,-0.196918,0.599999,-0.119475,0.161825,0.231457,0.039230,0.039109,1.000000,0.804420,49.4618,1
0.1458,0.002155,0.002120,0.231906,0.051038,0.049929,1.757370,-0.041484,0.040954,-0.024722,-0.335315,0.343527,-0.196725,0.215472,-0.036812,0.080436,0.251719,0.045751,0.045559,1.000000,0.770556,29.1078,1
0.1667,0.003305,0.003244,0.267990,0.058133,0.056761,1.715187,-0.048710,0.048139,-0.028473,-0.338384,0.360999,-0.143193,0.170174,0.035118,0.000272,0.233710,0.052264,0.051978,1.000000,0.735262,33.3266,1
0.1875,0.004596,0.004503,0.302761,0.064688,0.063020,1.638233,-0.055881,0.055473,-0.031276,-0.329461,0.362983,-0.099080,0.177077,0.102040,-0.072454,0.216962,0.058769,0.058361,1.000000,0.701411,50.7033,1
0.2083,0.006040,0.005907,0.335997,0.072546,0.070447,1.566753,-0.062745,0.062686,-0.033224,-0.309545,0.352397,-0.057371,0.182856,0.163997,-0.139298,0.197356,0.065263,0.064705,1.000000,0.669226,66.9429,1
0.2292,0.007664,0.007481,0.367801,0.081698,0.079012,1.499840,-0.069064,0.069535,-0.034355,-0.279266,0.329798,-0.018877,0.187682,0.218703,-0.197900,0.175686,0.071746,0.071004,1.000000,0.638605,62.7391,1
0.2500,0.009495,0.009246,0.398259,0.092086,0.088642,1.436727,-0.074623,0.075799,-0.034718,-0.239716,0.296342,0.015775,0.191574,0.264344,-0.246514,0.152705,0.078217,0.077254,1.000000,0.609459,48.4357,1
0.2708,0.011556,0.011224,0.427440,0.103600,0.099219,1.376678,-0.079232,0.081284,-0.034372,-0.192373,0.253661,0.046125,0.194615,0.299640,-0.284032,0.129125,0.084675,0.083452,1.000000,0.581711,54.2653,1
0.2917,0.013869,0.013432,0.455400,0.116085,0.110585,1.319031,-0.082741,0.085828,-0.033381,-0.138986,0.203717,0.071888,0.196956,0.323861,-0.309959,0.105584,0.091118,0.089592,1.000000,0.555299,40.5660,1
0.3125,0.016452,0.015885,0.482183,0.129357,0.122561,1.263253,-0.085041,0.089310,-0.031821,-0.081463,0.148643,0.092949,0.198799,0.336799,-0.324340,0.082640,0.097545,0.095671,1.000000,0.530167,72.0592,1
0.3333,0.019320,0.018593,0.507822,0.143217,0.134953,1.208977,-0.086069,0.091650,-0.029772,-0.021755,0.090598,0.109345,0.200185,0.338680,-0.327644,0.060763,0.103956,0.101684,1.000000,0.506268,55.4838,1
0.3542,0.022481,0.021562,0.532345,0.157454,0.147554,1.155874,-0.085806,0.092808,-0.027321,0.038204,0.031686,0.121237,0.201359,0.330154,-0.320718,0.040333,0.110349,0.107628,1.000000,0.483559,35.8782,1
0.3750,0.025942,0.024794,0.555774,0.171864,0.160167,1.103805,-0.084272,0.092784,-0.024557,0.096605,-0.026163,0.128893,0.202468,0.312178,-0.304661,0.021643,0.116723,0.113498,1.000000,0.462002,54.6570,1
0.3958,0.029702,0.028286,0.578132,0.186256,0.172600,1.052747,-0.081531,0.091612,-0.021572,0.151803,-0.081232,0.132663,0.203625,0.285965,-0.280761,0.004901,0.123077,0.119290,1.000000,0.441558,55.9044,1
0.4167,0.033761,0.032034,0.599439,0.200452,0.184675,1.002760,-0.077675,0.089360,-0.018456,0.202359,-0.132057,0.132955,0.204909,0.252912,-0.250425,-0.009761,0.129410,0.125000,1.000000,0.422185,48.7418,1
0.4375,0.038111,0.036027,0.619719,0.214291,0.196226,0.953961,-0.072827,0.086122,-0.015295,0.247070,-0.177439,0.130213,0.206367,0.214544,-0.215129,-0.022281,0.135720,0.130625,1.000000,0.403844,39.2823,1
0.4583,0.042743,0.040252,0.639000,0.227632,0.207106,0.906498,-0.067129,0.082015,-0.012170,0.284982,-0.216457,0.124898,0.208012,0.172459,-0.176371,-0.032659,0.142008,0.136160,1.000000,0.386488,62.7785,1
0.4792,0.047646,0.044695,0.657310,0.240347,0.217179,0.860524,-0.060740,0.077173,-0.009153,0.315406,-0.248457,0.117472,0.209837,0.128275,-0.135634,-0.040946,0.148271,0.141602,1.000000,0.370071,32.8190,1
0.5000,0.052804,0.049335,0.674683,0.252329,0.226330,0.816178,-0.053827,0.071742,-0.006305,0.337921,-0.273056,0.108386,0.211818,0.083576,-0.094347,-0.047237,0.154508,0.146946,1.000000,0.354546,42.3288,1
0.5208,0.058202,0.054154,0.691154,0.263488,0.234463,0.773574,-0.046560,0.065875,-0.003676,0.352377,-0.290121,0.098067,0.213919,0.039868,-0.053850,-0.051660,0.160720,0.152190,1.000000,0.339863,34.1654,1
0.5417,0.063821,0.059129,0.706760,0.273756,0.241503,0.732796,-0.039107,0.059729,-0.001304,0.358883,-0.299761,0.086915,0.216103,-0.001482,-0.015364,-0.054373,0.166903,0.157330,1.000000,0.325974,36.5248,1
0.5625,0.069643,0.064236,0.721540,0.283082,0.247397,0.693893,-0.031631,0.053454,0.000784,0.357801,-0.302305,0.075292,0.218334,-0.039277,0.020048,-0.055548,0.173059,0.162362,1.000000,0.312831,33.8326,1
0.5833,0.075647,0.069451,0.735533,0.291438,0.252116,0.656881,-0.024279,0.047193,0.002575,0.349715,-0.298282,0.063519,0.220580,-0.072535,0.051497,-0.055372,0.179184,0.167283,1.000000,0.300389,28.0561,1
0.6042,0.081812,0.074750,0.748779,0.298815,0.255657,0.621752,-0.017186,0.041079,0.004066,0.335404,-0.288385,0.051877,0.222814,-0.100512,0.078298,-0.054033,0.185279,0.172089,1.000000,0.288604,29.9149,1
0.6250,0.088119,0.080107,0.761316,0.305226,0.258038,0.588476,-0.010466,0.035227,0.005262,0.315803,-0.273443,0.040602,0.225016,-0.122715,0.099977,-0.051721,0.191342,0.176777,1.000000,0.277434,73.8623,1
0.6458,0.094548,0.085501,0.773182,0.310702,0.259300,0.557008,-0.004213,0.029732,0.006177,0.291955,-0.254383,0.029891,0.227172,-0.138905,0.116277,-0.048616,0.197372,0.181344,1.000000,0.266842,45.6913,1
0.6667,0.101080,0.090907,0.784415,0.315292,0.259502,0.527293,0.001502,0.024673,0.006831,0.264971,-0.232189,0.019896,0.229271,-0.149089,0.127152,-0.044891,0.203368,0.185786,1.000000,0.256791,39.8414,1
0.6875,0.107697,0.096305,0.795050,0.319056,0.258722,0.499270,0.006628,0.020103,0.007245,0.235975,-0.207866,0.010736,0.231303,-0.153497,0.132758,-0.040705,0.209330,0.190101,1.000000,0.247248,43.9155,1
0.7083,0.114383,0.101676,0.805121,0.322068,0.257046,0.472872,0.011142,0.016058,0.007448,0.206066,-0.182401,0.002493,0.233262,-0.152561,0.133430,-0.036206,0.215256,0.194286,1.000000,0.238180,37.2884,1
0.7292,0.121123,0.107001,0.814662,0.324407,0.254571,0.448033,0.015037,0.012549,0.007464,0.176273,-0.156729,-0.004782,0.235140,-0.146871,0.129657,-0.031526,0.221144,0.198338,1.000000,0.229558,32.9661,1
0.7500,0.127905,0.112266,0.823704,0.326159,0.251397,0.424681,0.018328,0.009573,0.007323,0.147523,-0.131702,-0.011062,0.236929,-0.137147,0.122050,-0.026782,0.226995,0.202254,1.000000,0.221353,34.7915,1
0.7708,0.134716,0.117457,0.832278,0.327408,0.247625,0.402742,0.021047,0.007105,0.007049,0.120613,-0.108067,-0.016347,0.238623,-0.124189,0.111309,-0.022077,0.232807,0.206032,1.000000,0.213537,27.4103,1
0.7917,0.141548,0.122563,0.840410,0.328238,0.243353,0.382136,0.023241,0.005108,0.006668,0.096190,-0.086442,-0.020654,0.240215,-0.108842,0.098186,-0.017502,0.238579,0.209668,1.000000,0.206085,39.5453,1
0.8125,0.148393,0.127575,0.848130,0.328727,0.238671,0.362782,0.024967,0.003536,0.006203,0.074737,-0.067306,-0.024019,0.241700,-0.091955,0.083448,-0.013132,0.244311,0.213160,1.000000,0.198971,40.1576,1
0.8333,0.155244,0.132485,0.855460,0.328946,0.233664,0.344596,0.026289,0.002329,0.005675,0.056575,-0.050994,-0.026490,0.243074,-0.074343,0.067846,-0.009030,0.250000,0.216506,1.000000,0.192171,23.1025,1
0.8542,0.162098,0.137288,0.862425,0.328956,0.228402,0.327491,0.027279,0.001428,0.005105,0.041864,-0.037697,-0.028126,0.244337,-0.056761,0.052083,-0.005246,0.255647,0.219704,1.000000,0.185662,29.4187,1
0.8750,0.168950,0.141978,0.869047,0.328810,0.222947,0.311380,0.028007,0.000767,0.004509,0.030610,-0.027466,-0.028997,0.245492,-0.039880,0.036788,-0.001821,0.261249,0.222752,1.000000,0.179422,21.7664,1
0.8958,0.175797,0.146553,0.875344,0.328548,0.217345,0.296179,0.028544,0.000283,0.003903,0.022688,-0.020228,-0.029176,0.246544,-0.024261,0.022502,0.001218,0.266807,0.225646,1.000000,0.173429,36.0637,1
0.9167,0.182637,0.151010,0.881335,0.328201,0.211633,0.281810,0.028955,-0.000085,0.003300,0.017856,-0.015802,-0.028744,0.247503,-0.010355,0.009658,0.003854,0.272320,0.228386,1.000000,0.167665,37.0290,1
0.9375,0.189470,0.155347,0.887035,0.327786,0.205833,0.268197,0.029300,-0.000391,0.002714,0.015781,-0.013916,-0.027782,0.248378,0.001512,-0.001418,0.006080,0.277785,0.230970,1.000000,0.162109,34.8563,1
0.9583,0.196293,0.159562,0.892461,0.327314,0.199957,0.255276,0.029632,-0.000686,0.002152,0.016063,-0.014230,-0.026372,0.249181,0.011130,-0.010513,0.007896,0.283203,0.233395,1.000000,0.156746,35.2049,1
0.9792,0.203105,0.163653,0.897626,0.326785,0.194007,0.242990,0.029993,-0.001010,0.001625,0.018257,-0.016358,-0.024595,0.249924,0.018405,-0.017522,0.009313,0.288573,0.235660,1.000000,0.151559,37.9243,1
1.0000,0.209906,0.167620,0.902542,0.326191,0.187976,0.231291,0.030419,-0.001395,0.001138,0.021898,-0.019891,-0.022532,0.250618,0.023348,-0.022436,0.010345,0.293893,0.237764,1.000000,0.146534,33.4904,1
1.0208,0.216693,0.171459,0.907221,0.325519,0.181853,0.220141,0.030932,-0.001867,0.000696,0.026523,-0.024412,-0.020259,0.251273,0.026061,-0.025333,0.011018,0.299162,0.239705,1.000000,0.141656,28.0726,1
1.0417,0.223466,0.175170,0.911674,0.324752,0.175620,0.209507,0.031549,-0.002439,0.000303,0.031688,-0.029521,-0.017846,0.251899,0.026720,-0.026365,0.011357,0.304381,0.241481,1.000000,0.136915,27.2896,1
1.0625,0.230220,0.178750,0.915912,0.323870,0.169256,0.199365,0.032275,-0.003121,-0.000040,0.036982,-0.034843,-0.015360,0.252500,0.025565,-0.025740,0.011394,0.309547,0.243092,1.000000,0.132300,24.3440,1
1.0833,0.236955,0.182195,0.919945,0.322851,0.162741,0.189695,0.033109,-0.003912,-0.000332,0.042044,-0.040046,-0.012861,0.253083,0.022877,-0.023706,0.011165,0.314660,0.244537,1.000000,0.127802,22.3870,1
1.1042,0.243667,0.185502,0.923782,0.321673,0.156054,0.180481,0.034042,-0.004806,-0.000573,0.046567,-0.044843,-0.010404,0.253650,0.018967,-0.020541,0.010706,0.319720,0.245814,1.000000,0.123413,21.2102,1
1.1250,0.250352,0.188667,0.927432,0.320317,0.149176,0.171708,0.035060,-0.005791,-0.000766,0.050306,-0.049007,-0.008035,0.254202,0.014155,-0.016532,0.010055,0.324724,0.246922,1.000000,0.119126,22.8431,1
1.1458,0.257006,0.191687,0.930905,0.318765,0.142090,0.163364,0.036143,-0.006853,-0.000912,0.053080,-0.052363,-0.005795,0.254739,0.008760,-0.011963,0.009249,0.329673,0.247861,1.000000,0.114935,25.4169,1
1.1667,0.263625,0.194556,0.934209,0.317002,0.134784,0.155436,0.037271,-0.007974,-0.001015,0.054772,-0.054797,-0.003717,0.255260,0.003086,-0.007107,0.008326,0.334565,0.248630,1.000000,0.110837,18.5680,1
1.1875,0.270205,0.197270,0.937354,0.315018,0.127250,0.147910,0.038421,-0.009132,-0.001079,0.055326,-0.056249,-0.001827,0.255764,-0.002591,-0.002212,0.007321,0.339400,0.249229,1.000000,0.106828,18.5299,1
1.2083,0.276741,0.199825,0.940346,0.312804,0.119485,0.140771,0.039567,-0.010308,-0.001107,0.054739,-0.056707,-0.000145,0.256250,-0.008027,0.002502,0.006268,0.344177,0.249657,1.000000,0.102906,21.1880,1
1.2292,0.283227,0.202214,0.943194,0.310359,0.111490,0.134003,0.040688,-0.011482,-0.001104,0.053061,-0.056208,0.001318,0.256715,-0.013017,0.006853,0.005197,0.348895,0.249914,1.000000,0.099068,27.5414,1
1.2500,0.289660,0.204435,0.945906,0.307683,0.103270,0.127592,0.041761,-0.012635,-0.001074,0.050380,-0.054822,0.002554,0.257158,-0.017402,0.010696,0.004137,0.353553,0.250000,1.000000,0.095314,21.6186,1
1.2708,0.296034,0.206481,0.948488,0.304781,0.094836,0.121517,0.042768,-0.013749,-0.001021,0.046818,-0.052653,0.003562,0.257578,-0.021067,0.013926,0.003112,0.358151,0.249914,1.000000,0.091643,18.1201,1
1.2917,0.302345,0.208349,0.950947,0.301661,0.086202,0.115763,0.043690,-0.014809,-0.000950,0.042520,-0.049822,0.004347,0.257974,-0.023939,0.016478,0.002143,0.362687,0.249657,1.000000,0.088055,20.7226,1
1.3125,0.308588,0.210035,0.953291,0.298335,0.077385,0.110311,0.044516,-0.015805,-0.000865,0.037644,-0.046468,0.004917,0.258347,-0.025990,0.018322,0.001247,0.367161,0.249229,1.000000,0.084550,20.0372,1
1.3333,0.314760,0.211535,0.955525,0.294815,0.068406,0.105142,0.045235,-0.016725,-0.000770,0.032358,-0.042734,0.005286,0.258696,-0.027228,0.019463,0.000436,0.371572,0.248630,1.000000,0.081128,22.3141,1
1.3542,0.320856,0.212846,0.957654,0.291117,0.059286,0.100239,0.045841,-0.017566,-0.000668,0.026826,-0.038763,0.005470,0.259022,-0.027692,0.019935,-0.000279,0.375920,0.247861,1.000000,0.077790,21.9476,1
1.3750,0.326873,0.213966,0.959684,0.287257,0.050048,0.095586,0.046330,-0.018322,-0.000563,0.021203,-0.034691,0.005486,0.259326,-0.027451,0.019794,-0.000892,0.380203,0.246922,1.000000,0.074536,20.3624,1
1.3958,0.332808,0.214892,0.961620,0.283252,0.040717,0.091165,0.046703,-0.018994,-0.000457,0.015632,-0.030644,0.005356,0.259609,-0.026594,0.019114,-0.001402,0.384421,0.245814,1.000000,0.071366,20.3326,1
1.4167,0.338657,0.215623,0.963467,0.279118,0.031315,0.086962,0.046961,-0.019583,-0.000353,0.010238,-0.026731,0.005102,0.259873,-0.025222,0.017985,-0.001809,0.388573,0.244537,1.000000,0.068281,23.0618,1
1.4375,0.344419,0.216158,0.965228,0.274873,0.021867,0.082963,0.047111,-0.020094,-0.000255,0.005126,-0.023045,0.004744,0.260118,-0.023446,0.016501,-0.002115,0.392658,0.243092,1.000000,0.065281,22.7244,1
1.4583,0.350092,0.216495,0.966909,0.270532,0.012394,0.079154,0.047158,-0.020532,-0.000162,0.000377,-0.019658,0.004306,0.260347,-0.021381,0.014760,-0.002327,0.396677,0.241481,1.000000,0.062366,26.9725,1
1.4792,0.355673,0.216634,0.968513,0.266109,0.002917,0.075523,0.047112,-0.020904,-0.000078,-0.003950,-0.016624,0.003809,0.260560,-0.019138,0.012858,-0.002451,0.400627,0.239705,1.000000,0.059536,18.1248,1
1.5000,0.361160,0.216577,0.970043,0.261617,-0.006546,0.072060,0.046981,-0.021217,-0.000002,-0.007820,-0.013977,0.003272,0.260760,-0.016820,0.010886,-0.002497,0.404508,0.237764,1.000000,0.056792,19.9685,1
1.5208,0.366554,0.216323,0.971503,0.257067,-0.015977,0.068755,0.046776,-0.021480,0.000063,-0.011217,-0.011730,0.002714,0.260947,-0.014523,0.008926,-0.002473,0.408321,0.235660,1.000000,0.054134,23.8683,1
1.5417,0.371852,0.215872,0.972896,0.252470,-0.025361,0.065599,0.046506,-0.021701,0.000119,-0.014145,-0.009883,0.002152,0.261123,-0.012327,0.007049,-0.002390,0.412063,0.233395,1.000000,0.051562,21.3513,1
1.5625,0.377054,0.215227,0.974225,0.247833,-0.034685,0.062583,0.046180,-0.021889,0.000164,-0.016626,-0.008418,0.001601,0.261290,-0.010299,0.005312,-0.002259,0.415735,0.230970,1.000000,0.049075,20.6988,1
1.5833,0.382159,0.214389,0.975493,0.243162,-0.043938,0.059702,0.045807,-0.022050,0.000199,-0.018694,-0.007309,0.001072,0.261448,-0.008490,0.003761,-0.002090,0.419335,0.228386,1.000000,0.046676,21.0404,1
1.6042,0.387166,0.213359,0.976702,0.238463,-0.053110,0.056949,0.045397,-0.022192,0.000224,-0.020394,-0.006518,0.000577,0.261598,-0.006937,0.002427,-0.001892,0.422864,0.225646,1.000000,0.044363,19.1753,1
1.6250,0.392075,0.212139,0.977855,0.233739,-0.062195,0.054317,0.044954,-0.022322,0.000240,-0.021778,-0.005999,0.000122,0.261741,-0.005660,0.001330,-0.001676,0.426320,0.222752,1.000000,0.042140,20.8371,1
1.6458,0.396885,0.210730,0.978956,0.228992,-0.071185,0.051802,0.044486,-0.022443,0.000248,-0.022902,-0.005707,-0.000286,0.261879,-0.004666,0.000476,-0.001449,0.429703,0.219704,1.000000,0.040005,21.1017,1
1.6667,0.401596,0.209136,0.980005,0.224224,-0.080075,0.049400,0.043998,-0.022560,0.000249,-0.023824,-0.005590,-0.000644,0.262010,-0.003949,-0.000138,-0.001219,0.433013,0.216506,1.000000,0.037962,20.7901,1
1.6875,0.406208,0.207358,0.981005,0.219435,-0.088862,0.047105,0.043491,-0.022677,0.000243,-0.024600,-0.005601,-0.000950,0.262136,-0.003493,-0.000527,-0.000993,0.436248,0.213160,1.000000,0.036012,18.0311,1
1.7083,0.410719,0.205398,0.981959,0.214626,-0.097540,0.044914,0.042970,-0.022794,0.000232,-0.025285,-0.005693,-0.001203,0.262257,-0.003272,-0.000711,-0.000776,0.439409,0.209668,1.000000,0.034158,21.1143,1
1.7292,0.415130,0.203258,0.982869,0.209795,-0.106108,0.042822,0.042435,-0.022914,0.000216,-0.025925,-0.005825,-0.001407,0.262373,-0.003256,-0.000715,-0.000572,0.442494,0.206032,1.000000,0.032403,22.8655,1
1.7500,0.419441,0.200942,0.983736,0.204943,-0.114562,0.040826,0.041887,-0.023037,0.000198,-0.026563,-0.005960,-0.001562,0.262484,-0.003410,-0.000571,-0.000386,0.445503,0.202254,1.000000,0.030749,19.4113,1
1.7708,0.423649,0.198451,0.984563,0.200069,-0.122900,0.038921,0.041325,-0.023163,0.000177,-0.027232,-0.006067,-0.001672,0.262590,-0.003695,-0.000310,-0.000218,0.448436,0.198338,1.000000,0.029201,19.8014,1
1.7917,0.427756,0.195787,0.985351,0.195172,-0.131118,0.037104,0.040748,-0.023290,0.000154,-0.027960,-0.006123,-0.001742,0.262691,-0.004073,0.000037,-0.000070,0.451293,0.194286,1.000000,0.027764,27.9002,1
1.8125,0.431761,0.192954,0.986102,0.190252,-0.139214,0.035371,0.040156,-0.023417,0.000131,-0.028766,-0.006109,-0.001776,0.262787,-0.004507,0.000436,0.000056,0.454072,0.190101,1.000000,0.026440,22.8965,1
1.8333,0.435663,0.189954,0.986818,0.185310,-0.147183,0.033718,0.039545,-0.023543,0.000109,-0.029660,-0.006016,-0.001779,0.262878,-0.004964,0.000860,0.000161,0.456773,0.185786,1.000000,0.025234,20.4775,1
1.8542,0.439461,0.186790,0.987501,0.180345,-0.155022,0.032142,0.038915,-0.023666,0.000087,-0.030647,-0.005837,-0.001757,0.262964,-0.005413,0.001283,0.000246,0.459396,0.181344,1.000000,0.024151,21.5149,1
1.8750,0.443156,0.183464,0.988152,0.175359,-0.162726,0.030638,0.038262,-0.023784,0.000066,-0.031726,-0.005572,-0.001713,0.263046,-0.005827,0.001681,0.000311,0.461940,0.176777,1.000000,0.023193,31.2681,1
1.8958,0.446747,0.179979,0.988772,0.170352,-0.170292,0.029202,0.037587,-0.023896,0.000047,-0.032889,-0.005227,-0.001654,0.263122,-0.006185,0.002037,0.000358,0.464405,0.172089,1.000000,0.022363,23.3779,1
1.9167,0.450233,0.176338,0.989363,0.165326,-0.177714,0.027832,0.036886,-0.024000,0.000031,-0.034124,-0.004811,-0.001583,0.263194,-0.006472,0.002338,0.000388,0.466790,0.167283,1.000000,0.021663,27.6270,1
1.9375,0.453614,0.172544,0.989927,0.160282,-0.184986,0.026523,0.036159,-0.024094,0.000016,-0.035417,-0.004333,-0.001504,0.263262,-0.006677,0.002573,0.000404,0.469096,0.162362,1.000000,0.021091,24.6084,1
1.9583,0.456890,0.168601,0.990464,0.155224,-0.192104,0.025273,0.035404,-0.024178,0.000004,-0.036751,-0.003808,-0.001421,0.263325,-0.006793,0.002739,0.000408,0.471321,0.157330,1.000000,0.020645,24.5919,1
1.9792,0.460061,0.164512,0.990975,0.150152,-0.199062,0.024077,0.034621,-0.024250,-0.000006,-0.038108,-0.003250,-0.001337,0.263384,-0.006820,0.002833,0.000401,0.473465,0.152190,1.000000,0.020321,24.8134,1
2.0000,0.463125,0.160279,0.991463,0.145070,-0.205853,0.022934,0.033810,-0.024311,-0.000013,-0.039469,-0.002672,-0.001255,0.263440,-0.006760,0.002858,0.000385,0.475528,0.146946,1.000000,0.020112,20.7236,1
2.0208,0.466084,0.155908,0.991927,0.139980,-0.212473,0.021840,0.032971,-0.024359,-0.000017,-0.040816,-0.002090,-0.001177,0.263492,-0.006619,0.002819,0.000362,0.477510,0.141602,1.000000,0.020010,19.1269,1
2.0417,0.468937,0.151400,0.992369,0.134885,-0.218914,0.020793,0.032103,-0.024395,-0.000020,-0.042134,-0.001516,-0.001105,0.263541,-0.006406,0.002723,0.000334,0.479410,0.136160,1.000000,0.020005,19.7594,1
2.0625,0.471683,0.146761,0.992789,0.129787,-0.225173,0.019790,0.031209,-0.024420,-0.000020,-0.043407,-0.000961,-0.001039,0.263587,-0.006131,0.002578,0.000302,0.481228,0.130625,1.000000,0.020087,20.8824,1
2.0833,0.474323,0.141994,0.993190,0.124688,-0.231243,0.018829,0.030290,-0.024434,-0.000019,-0.044623,-0.000437,-0.000981,0.263630,-0.005807,0.002395,0.000268,0.482963,0.125000,1.000000,0.020244,18.9559,1
2.1042,0.476857,0.137103,0.993570,0.119591,-0.237119,0.017908,0.029345,-0.024437,-0.000015,-0.045771,0.000050,-0.000931,0.263671,-0.005444,0.002184,0.000233,0.484615,0.119290,1.000000,0.020465,18.8649,1
2.1250,0.479285,0.132091,0.993932,0.114498,-0.242796,0.017026,0.028378,-0.024430,-0.000011,-0.046844,0.000494,-0.000889,0.263710,-0.005057,0.001954,0.000197,0.486185,0.113498,1.000000,0.020740,21.1384,1
2.1458,0.481607,0.126964,0.994277,0.109410,-0.248270,0.016180,0.027390,-0.024415,-0.000005,-0.047837,0.000891,-0.000856,0.263747,-0.004655,0.001716,0.000162,0.487671,0.107628,1.000000,0.021058,21.7972,1
2.1667,0.483823,0.121726,0.994603,0.104331,-0.253537,0.015370,0.026381,-0.024392,0.000002,-0.048746,0.001240,-0.000831,0.263783,-0.004251,0.001479,0.000129,0.489074,0.101684,1.000000,0.021409,19.9308,1
2.1875,0.485933,0.116380,0.994914,0.099261,-0.258593,0.014593,0.025355,-0.024362,0.000010,-0.049572,0.001540,-0.000813,0.263817,-0.003853,0.001250,0.000097,0.490393,0.095671,1.000000,0.021786,22.5985,1
2.2083,0.487937,0.110932,0.995209,0.094202,-0.263434,0.013849,0.024313,-0.024327,0.000019,-0.050317,0.001793,-0.000802,0.263850,-0.003471,0.001037,0.000068,0.491627,0.089592,1.000000,0.022180,21.0044,1
2.2292,0.489837,0.105386,0.995488,0.089154,-0.268057,0.013136,0.023256,-0.024287,0.000028,-0.050982,0.002002,-0.000797,0.263881,-0.003109,0.000843,0.000042,0.492778,0.083452,1.000000,0.022585,19.3918,1
2.2500,0.491631,0.099746,0.995753,0.084120,-0.272460,0.012454,0.022186,-0.024243,0.000037,-0.051572,0.002172,-0.000798,0.263911,-0.002773,0.000674,0.000018,0.493844,0.077254,1.000000,0.022996,23.9995,1
2.2708,0.493321,0.094017,0.996005,0.079099,-0.276640,0.011800,0.021105,-0.024196,0.000047,-0.052093,0.002307,-0.000804,0.263941,-0.002465,0.000531,-0.000003,0.494826,0.071004,1.000000,0.023406,18.5966,1
2.2917,0.494906,0.088204,0.996243,0.074092,-0.280595,0.011175,0.020013,-0.024147,0.000056,-0.052551,0.002414,-0.000813,0.263969,-0.002188,0.000415,-0.000020,0.495722,0.064705,1.000000,0.023811,32.6281,1
2.3125,0.496387,0.082311,0.996468,0.069100,-0.284323,0.010578,0.018913,-0.024095,0.000066,-0.052952,0.002496,-0.000827,0.263997,-0.001941,0.000327,-0.000035,0.496534,0.058361,1.000000,0.024209,37.4489,1
2.3333,0.497765,0.076343,0.996681,0.064123,-0.287822,0.010006,0.017805,-0.024042,0.000075,-0.053302,0.002561,-0.000842,0.264023,-0.001723,0.000265,-0.000047,0.497261,0.051978,1.000000,0.024596,31.3036,1
2.3542,0.499039,0.070306,0.996883,0.059162,-0.291092,0.009460,0.016691,-0.023988,0.000084,-0.053607,0.002612,-0.000860,0.264049,-0.001531,0.000227,-0.000056,0.497902,0.045559,1.000000,0.024968,26.3090,1
2.3750,0.500209,0.064203,0.997073,0.054216,-0.294131,0.008939,0.015570,-0.023933,0.000093,-0.053872,0.002657,-0.000879,0.264074,-0.001363,0.000211,-0.000062,0.498459,0.039109,1.000000,0.025325,17.0436,1
2.3958,0.501277,0.058040,0.997253,0.049286,-0.296938,0.008442,0.014445,-0.023877,0.000101,-0.054103,0.002697,-0.000899,0.264098,-0.001216,0.000212,-0.000066,0.498929,0.032632,1.000000,0.025664,18.8041,1
2.4167,0.502243,0.051821,0.997423,0.044373,-0.299513,0.007967,0.013315,-0.023820,0.000109,-0.054303,0.002738,-0.000920,0.264122,-0.001084,0.000229,-0.000068,0.499315,0.026132,1.000000,0.025983,19.9494,1
2.4375,0.503106,0.045552,0.997584,0.039476,-0.301855,0.007515,0.012181,-0.023763,0.000116,-0.054477,0.002783,-0.000940,0.264145,-0.000964,0.000257,-0.000068,0.499615,0.019615,1.000000,0.026282,22.0578,1
2.4583,0.503867,0.039236,0.997735,0.034595,-0.303962,0.007083,0.011044,-0.023704,0.000124,-0.054626,0.002833,-0.000959,0.264167,-0.000853,0.000294,-0.000067,0.499829,0.013084,1.000000,0.026559,23.4687,1
2.4792,0.504527,0.032880,0.997877,0.029732,-0.305836,0.006673,0.009904,-0.023644,0.000130,-0.054751,0.002890,-0.000977,0.264189,-0.000746,0.000335,-0.000064,0.499957,0.006544,1.000000,0.026813,22.8982,1
2.5000,0.505086,0.026487,0.998011,0.024885,-0.307475,0.006282,0.008762,-0.023583,0.000137,-0.054855,0.002956,-0.000995,0.264210,-0.000640,0.000378,-0.000060,0.500000,-0.000000,1.000000,0.027044,19.3374,1
2.5208,0.505544,0.020064,0.998138,0.020056,-0.308879,0.005910,0.007618,-0.023520,0.000143,-0.054938,0.003031,-0.001010,0.264230,-0.000532,0.000420,-0.000055,0.499957,-0.006544,1.000000,0.027252,25.8281,1
2.5417,0.505902,0.013614,0.998256,0.015244,-0.310048,0.005556,0.006472,-0.023456,0.000149,-0.054998,0.003114,-0.001024,0.264250,-0.000419,0.000459,-0.000049,0.499829,-0.013084,1.000000,0.027435,29.4571,1
2.5625,0.506159,0.007142,0.998368,0.010450,-0.310983,0.005220,0.005326,-0.023390,0.000154,-0.055035,0.003205,-0.001036,0.264269,-0.000300,0.000494,-0.000043,0.499615,-0.019615,1.000000,0.027594,21.9998,1
2.5833,0.506317,0.000654,0.998473,0.005675,-0.311682,0.004901,0.004178,-0.023322,0.000159,-0.055048,0.003303,-0.001047,0.264288,-0.000174,0.000524,-0.000037,0.499315,-0.026132,1.000000,0.027729,32.5568,1
2.6042,0.506376,-0.005845,0.998571,0.000918,-0.312147,0.004599,0.003032,-0.023251,0.000164,-0.055035,0.003407,-0.001055,0.264307,-0.000039,0.000547,-0.000031,0.498929,-0.032632,1.000000,0.027839,34.9555,1
2.6250,0.506336,-0.012352,0.998663,-0.003819,-0.312378,0.004311,0.001885,-0.023179,0.000168,-0.054994,0.003516,-0.001061,0.264325,0.000105,0.000563,-0.000025,0.498459,-0.039109,1.000000,0.027925,30.8657,1
2.6458,0.506197,-0.018860,0.998750,-0.008537,-0.312375,0.004040,0.000740,-0.023104,0.000173,-0.054924,0.003627,-0.001065,0.264343,0.000258,0.000572,-0.000019,0.497902,-0.045559,1.000000,0.027986,29.2740,1
2.6667,0.505961,-0.025365,0.998831,-0.013234,-0.312139,0.003782,-0.000403,-0.023027,0.000177,-0.054823,0.003741,-0.001067,0.264360,0.000418,0.000576,-0.000013,0.497261,-0.051978,1.000000,0.028023,22.1744,1
2.6875,0.505626,-0.031862,0.998906,-0.017911,-0.311670,0.003539,-0.001544,-0.022947,0.000181,-0.054689,0.003855,-0.001068,0.264377,0.000587,0.000573,-0.000008,0.496534,-0.058361,1.000000,0.028037,21.2021,1
2.7083,0.505195,-0.038347,0.998977,-0.022567,-0.310968,0.003309,-0.002682,-0.022865,0.000185,-0.054521,0.003969,-0.001066,0.264394,0.000761,0.000565,-0.000004,0.495722,-0.064705,1.000000,0.028027,19.6447,1
2.7292,0.504667,-0.044814,0.999043,-0.027201,-0.310037,0.003092,-0.003815,-0.022781,0.000188,-0.054318,0.004081,-0.001063,0.264410,0.000941,0.000554,-0.000000,0.494826,-0.071004,1.000000,0.027994,30.1638,1
2.7500,0.504043,-0.051259,0.999105,-0.031813,-0.308875,0.002888,-0.004944,-0.022694,0.000192,-0.054078,0.004191,-0.001058,0.264427,0.001124,0.000540,0.000003,0.493844,-0.077254,1.000000,0.027938,31.5914,1
2.7708,0.503322,-0.057677,0.999163,-0.036403,-0.307484,0.002696,-0.006067,-0.022605,0.000195,-0.053801,0.004297,-0.001052,0.264443,0.001310,0.000523,0.000005,0.492778,-0.083452,1.000000,0.027860,34.0259,1
2.7917,0.502507,-0.064063,0.999217,-0.040970,-0.305867,0.002516,-0.007185,-0.022514,0.000199,-0.053486,0.004400,-0.001045,0.264459,0.001497,0.000506,0.000007,0.491627,-0.089592,1.000000,0.027761,18.9323,1
2.8125,0.501596,-0.070413,0.999267,-0.045514,-0.304024,0.002347,-0.008295,-0.022421,0.000202,-0.053133,0.004500,-0.001036,0.264474,0.001684,0.000489,0.000008,0.490393,-0.095671,1.000000,0.027641,20.1635,1
2.8333,0.500592,-0.076721,0.999314,-0.050033,-0.301957,0.002189,-0.009397,-0.022326,0.000205,-0.052742,0.004596,-0.001026,0.264490,0.001870,0.000472,0.000009,0.489074,-0.101684,1.000000,0.027501,20.4971,1
2.8542,0.499493,-0.082984,0.999358,-0.054529,-0.299667,0.002041,-0.010491,-0.022229,0.000208,-0.052314,0.004688,-0.001016,0.264505,0.002053,0.000457,0.000009,0.487671,-0.107628,1.000000,0.027340,23.1609,1
2.8750,0.498301,-0.089196,0.999399,-0.059001,-0.297158,0.001904,-0.011575,-0.022130,0.000211,-0.051848,0.004778,-0.001004,0.264520,0.002234,0.000444,0.000009,0.486185,-0.113498,1.000000,0.027161,22.3179,1
2.8958,0.497016,-0.095353,0.999437,-0.063447,-0.294432,0.001776,-0.012649,-0.022029,0.000214,-0.051346,0.004864,-0.000992,0.264535,0.002410,0.000434,0.000008,0.484615,-0.119290,1.000000,0.026964,18.6586,1
2.9167,0.495639,-0.101450,0.999472,-0.067869,-0.291490,0.001658,-0.013712,-0.021926,0.000217,-0.050808,0.004949,-0.000980,0.264550,0.002583,0.000426,0.000008,0.482963,-0.125000,1.000000,0.026750,18.4216,1
2.9375,0.494170,-0.107484,0.999506,-0.072265,-0.288334,0.001549,-0.014764,-0.021822,0.000220,-0.050236,0.005031,-0.000967,0.264565,0.002751,0.000421,0.000006,0.481228,-0.130625,1.000000,0.026519,19.5291,1
2.9583,0.492610,-0.113449,0.999537,-0.076635,-0.284969,0.001449,-0.015803,-0.021716,0.000223,-0.049629,0.005113,-0.000953,0.264579,0.002915,0.000419,0.000005,0.479410,-0.136160,1.000000,0.026272,19.4995,1
2.9792,0.490959,-0.119342,0.999566,-0.080979,-0.281396,0.001357,-0.016829,-0.021608,0.000225,-0.048990,0.005194,-0.000940,0.264593,0.003074,0.000420,0.000004,0.477510,-0.141602,1.000000,0.026011,21.5516,1
3.0000,0.489218,-0.125157,0.999593,-0.085297,-0.277619,0.001273,-0.017842,-0.021499,0.000228,-0.048319,0.005276,-0.000926,0.264607,0.003228,0.000423,0.000003,0.475528,-0.146946,1.000000,0.025736,18.1262,1
3.0208,0.487387,-0.130892,0.999618,-0.089588,-0.273639,0.001197,-0.018840,-0.021388,0.000230,-0.047616,0.005358,-0.000912,0.264621,0.003379,0.000428,0.000002,0.473465,-0.152190,1.000000,0.025448,19.6347,1
3.0417,0.485468,-0.136541,0.999642,-0.093853,-0.269462,0.001128,-0.019823,-0.021275,0.000232,-0.046884,0.005441,-0.000898,0.264634,0.003525,0.000436,0.000001,0.471321,-0.157330,1.000000,0.025149,22.5391,1
3.0625,0.483459,-0.142100,0.999665,-0.098090,-0.265089,0.001066,-0.020790,-0.021160,0.000234,-0.046122,0.005525,-0.000883,0.264647,0.003667,0.000444,-0.000000,0.469096,-0.162362,1.000000,0.024839,21.4095,1
3.0833,0.481363,-0.147566,0.999687,-0.102299,-0.260525,0.001011,-0.021742,-0.021044,0.000236,-0.045332,0.005611,-0.000868,0.264660,0.003806,0.000454,-0.000001,0.466790,-0.167283,1.000000,0.024520,22.5093,1
3.1042,0.479180,-0.152935,0.999707,-0.106481,-0.255773,0.000962,-0.022676,-0.020925,0.000238,-0.044514,0.005699,-0.000854,0.264673,0.003941,0.000465,-0.000002,0.464405,-0.172089,1.000000,0.024192,19.0253,1
3.1250,0.476909,-0.158202,0.999727,-0.110634,-0.250836,0.000919,-0.023593,-0.020805,0.000239,-0.043670,0.005789,-0.000839,0.264685,0.004074,0.000476,-0.000002,0.461940,-0.176777,1.000000,0.023858,23.7844,1
3.1458,0.474553,-0.163364,0.999745,-0.114758,-0.245718,0.000882,-0.024492,-0.020683,0.000240,-0.042798,0.005882,-0.000824,0.264697,0.004205,0.000487,-0.000003,0.459396,-0.181344,1.000000,0.023518,20.4372,1
3.1667,0.472111,-0.168417,0.999763,-0.118854,-0.240423,0.000851,-0.025373,-0.020559,0.000242,-0.041901,0.005977,-0.000808,0.264709,0.004333,0.000498,-0.000003,0.456773,-0.185786,1.000000,0.023173,17.6823,1
3.1875,0.469584,-0.173358,0.999781,-0.122921,-0.234955,0.000824,-0.026234,-0.020434,0.000243,-0.040979,0.006073,-0.000793,0.264720,0.004458,0.000509,-0.000003,0.454072,-0.190101,1.000000,0.022826,17.4048,1
3.2083,0.466972,-0.178183,0.999798,-0.126958,-0.229319,0.000803,-0.027076,-0.020306,0.000243,-0.040031,0.006172,-0.000777,0.264732,0.004582,0.000518,-0.000003,0.451293,-0.194286,1.000000,0.022477,18.0986,1
3.2292,0.464277,-0.182888,0.999814,-0.130965,-0.223517,0.000786,-0.027898,-0.020176,0.000244,-0.039059,0.006273,-0.000761,0.264742,0.004704,0.000527,-0.000003,0.448436,-0.198338,1.000000,0.022129,17.0236,1
3.2500,0.461499,-0.187470,0.999830,-0.134941,-0.217556,0.000773,-0.028700,-0.020043,0.000245,-0.038063,0.006375,-0.000744,0.264753,0.004823,0.000535,-0.000002,0.445503,-0.202254,1.000000,0.021782,21.7297,1
3.2708,0.458638,-0.191926,0.999846,-0.138887,-0.211438,0.000764,-0.029480,-0.019909,0.000245,-0.037044,0.006479,-0.000728,0.264763,0.004941,0.000541,-0.000002,0.442494,-0.206032,1.000000,0.021439,19.6431,1
3.2917,0.455696,-0.196253,0.999862,-0.142802,-0.205168,0.000759,-0.030239,-0.019773,0.000245,-0.036001,0.006585,-0.000711,0.264772,0.005057,0.000547,-0.000002,0.439409,-0.209668,1.000000,0.021101,30.7400,1
3.3125,0.452672,-0.200447,0.999878,-0.146685,-0.198751,0.000757,-0.030976,-0.019634,0.000245,-0.034936,0.006691,-0.000693,0.264782,0.005170,0.000551,-0.000001,0.436248,-0.213160,1.000000,0.020770,33.5343,1
3.3333,0.449568,-0.204506,0.999894,-0.150536,-0.192191,0.000758,-0.031690,-0.019493,0.000245,-0.033848,0.006798,-0.000676,0.264791,0.005281,0.000554,-0.000001,0.433013,-0.216506,1.000000,0.020447,29.7003,1
3.3542,0.446384,-0.208427,0.999910,-0.154354,-0.185494,0.000762,-0.032381,-0.019350,0.000244,-0.032739,0.006906,-0.000658,0.264799,0.005389,0.000557,-0.000000,0.429703,-0.219704,1.000000,0.020136,25.6164,1
3.3750,0.443121,-0.212206,0.999926,-0.158140,-0.178664,0.000769,-0.033049,-0.019204,0.000244,-0.031608,0.007014,-0.000640,0.264807,0.005495,0.000558,0.000000,0.426320,-0.222752,1.000000,0.019837,24.1916,1
3.3958,0.439780,-0.215842,0.999942,-0.161893,-0.171705,0.000778,-0.033693,-0.019057,0.000243,-0.030457,0.007122,-0.000622,0.264815,0.005597,0.000559,0.000001,0.422864,-0.225646,1.000000,0.019552,29.7220,1
3.4167,0.436360,-0.219330,0.999958,-0.165612,-0.164623,0.000789,-0.034313,-0.018907,0.000242,-0.029285,0.007230,-0.000603,0.264822,0.005697,0.000559,0.000001,0.419335,-0.228386,1.000000,0.019284,25.9321,1
3.4375,0.432864,-0.222670,0.999975,-0.169297,-0.157423,0.000802,-0.034909,-0.018755,0.000241,-0.028095,0.007339,-0.000584,0.264829,0.005792,0.000558,0.000002,0.415735,-0.230970,1.000000,0.019034,21.7395,1
3.4583,0.429291,-0.225859,0.999992,-0.172947,-0.150110,0.000816,-0.035479,-0.018600,0.000240,-0.026886,0.007447,-0.000565,0.264835,0.005884,0.000556,0.000002,0.412063,-0.233395,1.000000,0.018804,19.5751,1
3.4792,0.425643,-0.228893,1.000009,-0.176562,-0.142690,0.000832,-0.036024,-0.018444,0.000238,-0.025659,0.007554,-0.000546,0.264841,0.005972,0.000555,0.000002,0.408321,-0.235660,1.000000,0.018597,21.4391,1
3.5000,0.421920,-0.231772,1.000026,-0.180142,-0.135167,0.000849,-0.036543,-0.018285,0.000236,-0.024415,0.007662,-0.000527,0.264846,0.006056,0.000553,0.000002,0.404508,-0.237764,1.000000,0.018413,19.2842,1
3.5208,0.418122,-0.234493,1.000044,-0.183686,-0.127546,0.000867,-0.037036,-0.018124,0.000235,-0.023155,0.007768,-0.000507,0.264851,0.006136,0.000550,0.000003,0.400627,-0.239705,1.000000,0.018255,20.0753,1
3.5417,0.414252,-0.237054,1.000063,-0.187193,-0.119834,0.000885,-0.037502,-0.017961,0.000233,-0.021880,0.007874,-0.000487,0.264855,0.006211,0.000547,0.000003,0.396677,-0.241481,1.000000,0.018124,21.0454,1
3.5625,0.410308,-0.239453,1.000081,-0.190664,-0.112036,0.000904,-0.037942,-0.017795,0.000231,-0.020590,0.007980,-0.000468,0.264859,0.006282,0.000544,0.000003,0.392658,-0.243092,1.000000,0.018021,22.7337,1
3.5833,0.406293,-0.241689,1.000100,-0.194097,-0.104156,0.000923,-0.038355,-0.017628,0.000229,-0.019288,0.008085,-0.000448,0.264863,0.006348,0.000541,0.000003,0.388573,-0.244537,1.000000,0.017948,21.1165,1
3.6042,0.402207,-0.243760,1.000120,-0.197493,-0.096202,0.000942,-0.038740,-0.017458,0.000226,-0.017972,0.008189,-0.000429,0.264866,0.006409,0.000537,0.000003,0.384421,-0.245814,1.000000,0.017905,23.3812,1
3.6250,0.398051,-0.245664,1.000140,-0.200851,-0.088178,0.000961,-0.039098,-0.017286,0.000224,-0.016646,0.008292,-0.000409,0.264868,0.006465,0.000534,0.000003,0.380203,-0.246922,1.000000,0.017893,27.8907,1
3.6458,0.393825,-0.247400,1.000160,-0.204170,-0.080090,0.000980,-0.039428,-0.017112,0.000221,-0.015309,0.008394,-0.000389,0.264870,0.006517,0.000530,0.000003,0.375920,-0.247861,1.000000,0.017911,29.8693,1
3.6667,0.389530,-0.248966,1.000181,-0.207450,-0.071944,0.000998,-0.039730,-0.016935,0.000218,-0.013963,0.008496,-0.000370,0.264871,0.006563,0.000525,0.000003,0.371572,-0.248630,1.000000,0.017962,36.4251,1
3.6875,0.385168,-0.250363,1.000202,-0.210691,-0.063746,0.001015,-0.040004,-0.016757,0.000216,-0.012608,0.008596,-0.000351,0.264872,0.006604,0.000521,0.000003,0.367161,-0.249229,1.000000,0.018043,36.4962,1
3.7083,0.380738,-0.251588,1.000223,-0.213891,-0.055501,0.001032,-0.040250,-0.016577,0.000213,-0.011246,0.008696,-0.000331,0.264873,0.006640,0.000516,0.000002,0.362687,-0.249657,1.000000,0.018155,43.9517,1
3.7292,0.376243,-0.252641,1.000245,-0.217052,-0.047216,0.001047,-0.040467,-0.016394,0.000210,-0.009878,0.008794,-0.000312,0.264873,0.006672,0.000511,0.000002,0.358151,-0.249914,1.000000,0.018297,38.6372,1
3.7500,0.371682,-0.253520,1.000267,-0.220171,-0.038896,0.001062,-0.040656,-0.016210,0.000206,-0.008505,0.008891,-0.000293,0.264872,0.006698,0.000506,0.000002,0.353553,-0.250000,1.000000,0.018469,33.7644,1
3.7708,0.367056,-0.254226,1.000289,-0.223249,-0.030547,0.001075,-0.040815,-0.016023,0.000203,-0.007127,0.008988,-0.000275,0.264871,0.006719,0.000500,0.000002,0.348895,-0.249914,1.000000,0.018668,26.0005,1
3.7917,0.362367,-0.254758,1.000311,-0.226286,-0.022174,0.001086,-0.040947,-0.015835,0.000200,-0.005746,0.009083,-0.000256,0.264870,0.006735,0.000495,0.000002,0.344177,-0.249657,1.000000,0.018894,25.1095,1
3.8125,0.357615,-0.255115,1.000334,-0.229281,-0.013785,0.001096,-0.041049,-0.015645,0.000196,-0.004363,0.009176,-0.000238,0.264868,0.006746,0.000489,0.000001,0.339400,-0.249229,1.000000,0.019145,28.1394,1
3.8333,0.352802,-0.255298,1.000357,-0.232232,-0.005385,0.001105,-0.041123,-0.015452,0.000193,-0.002979,0.009269,-0.000220,0.264865,0.006752,0.000482,0.000001,0.334565,-0.248630,1.000000,0.019420,34.8179,1
3.8542,0.347927,-0.255305,1.000380,-0.235141,0.003020,0.001111,-0.041167,-0.015258,0.000189,-0.001595,0.009360,-0.000202,0.264863,0.006754,0.000476,0.000001,0.329673,-0.247861,1.000000,0.019717,32.6610,1
3.8750,0.342992,-0.255137,1.000403,-0.238007,0.011425,0.001116,-0.041183,-0.015062,0.000185,-0.000212,0.009450,-0.000185,0.264860,0.006750,0.000469,0.000001,0.324724,-0.246922,1.000000,0.020034,26.7835,1
3.8958,0.337998,-0.254794,1.000427,-0.240829,0.019823,0.001119,-0.041170,-0.014864,0.000181,0.001169,0.009538,-0.000168,0.264856,0.006741,0.000463,0.000000,0.319720,-0.245814,1.000000,0.020370,41.2610,1
3.9167,0.332946,-0.254276,1.000450,-0.243607,0.028209,0.001120,-0.041129,-0.014664,0.000177,0.002548,0.009625,-0.000151,0.264852,0.006728,0.000456,-0.000000,0.314660,-0.244537,1.000000,0.020723,27.4863,1
3.9375,0.327837,-0.253584,1.000473,-0.246340,0.036575,0.001118,-0.041058,-0.014462,0.000173,0.003922,0.009710,-0.000135,0.264848,0.006710,0.000449,-0.000001,0.309547,-0.243092,1.000000,0.021091,26.2568,1
3.9583,0.322671,-0.252717,1.000497,-0.249028,0.044918,0.001115,-0.040960,-0.014259,0.000169,0.005292,0.009794,-0.000119,0.264843,0.006688,0.000442,-0.000001,0.304381,-0.241481,1.000000,0.021472,26.4750,1
3.9792,0.317450,-0.251677,1.000520,-0.251671,0.053230,0.001109,-0.040832,-0.014054,0.000165,0.006656,0.009876,-0.000103,0.264838,0.006661,0.000435,-0.000001,0.299162,-0.239705,1.000000,0.021864,26.4726,1
4.0000,0.312174,-0.250465,1.000543,-0.254268,0.061506,0.001101,-0.040677,-0.013847,0.000161,0.008013,0.009957,-0.000088,0.264832,0.006629,0.000429,-0.000002,0.293893,-0.237764,1.000000,0.022267,27.6864,1
4.0208,0.306845,-0.249081,1.000566,-0.256819,0.069739,0.001091,-0.040493,-0.013639,0.000157,0.009362,0.010037,-0.000073,0.264826,0.006593,0.000422,-0.000002,0.288573,-0.235660,1.000000,0.022678,22.4521,1
4.0417,0.301463,-0.247525,1.000588,-0.259324,0.077925,0.001079,-0.040281,-0.013429,0.000153,0.010703,0.010115,-0.000059,0.264820,0.006552,0.000416,-0.000003,0.283203,-0.233395,1.000000,0.023096,29.3095,1
4.0625,0.296030,-0.245800,1.000610,-0.261783,0.086058,0.001064,-0.040041,-0.013217,0.000149,0.012035,0.010192,-0.000045,0.264814,0.006508,0.000410,-0.000003,0.277785,-0.230970,1.000000,0.023520,34.1358,1
4.0833,0.290546,-0.243906,1.000632,-0.264194,0.094131,0.001047,-0.039774,-0.013004,0.000144,0.013356,0.010267,-0.000032,0.264807,0.006459,0.000404,-0.000004,0.272320,-0.228386,1.000000,0.023947,27.5488,1
4.1042,0.285012,-0.241845,1.000654,-0.266558,0.102140,0.001028,-0.039479,-0.012789,0.000140,0.014666,0.010341,-0.000019,0.264801,0.006406,0.000398,-0.000004,0.266807,-0.225646,1.000000,0.024377,25.1718,1
4.1250,0.279430,-0.239618,1.000675,-0.268874,0.110078,0.001006,-0.039157,-0.012573,0.000136,0.015965,0.010414,-0.000006,0.264794,0.006349,0.000392,-0.000004,0.261249,-0.222752,1.000000,0.024808,23.3884,1
4.1458,0.273800,-0.237226,1.000696,-0.271143,0.117940,0.000982,-0.038809,-0.012355,0.000131,0.017250,0.010485,0.000006,0.264786,0.006288,0.000387,-0.000005,0.255647,-0.219704,1.000000,0.025240,22.1288,1
4.1667,0.268123,-0.234672,1.000716,-0.273363,0.125721,0.000956,-0.038433,-0.012136,0.000127,0.018522,0.010556,0.000018,0.264779,0.006223,0.000382,-0.000005,0.250000,-0.216506,1.000000,0.025670,23.2735,1
4.1875,0.262401,-0.231956,1.000735,-0.275535,0.133414,0.000928,-0.038032,-0.011915,0.000123,0.019779,0.010625,0.000029,0.264771,0.006155,0.000377,-0.000006,0.244311,-0.213160,1.000000,0.026098,24.9102,1
4.2083,0.256634,-0.229081,1.000754,-0.277658,0.141016,0.000897,-0.037604,-0.011693,0.000118,0.021021,0.010693,0.000039,0.264763,0.006082,0.000373,-0.000006,0.238579,-0.209668,1.000000,0.026522,23.4084,1
4.2292,0.250824,-0.226050,1.000773,-0.279732,0.148520,0.000865,-0.037151,-0.011469,0.000114,0.022248,0.010760,0.000049,0.264755,0.006006,0.000368,-0.000007,0.232807,-0.206032,1.000000,0.026943,31.2204,1
4.2500,0.244970,-0.222863,1.000790,-0.281756,0.155922,0.000830,-0.036672,-0.011244,0.000110,0.023458,0.010826,0.000059,0.264748,0.005927,0.000364,-0.000007,0.226995,-0.202254,1.000000,0.027358,23.3240,1
4.2708,0.239076,-0.219523,1.000807,-0.283732,0.163216,0.000794,-0.036168,-0.011018,0.000106,0.024650,0.010892,0.000068,0.264739,0.005844,0.000360,-0.000008,0.221144,-0.198338,1.000000,0.027766,20.1237,1
4.2917,0.233141,-0.216033,1.000823,-0.285657,0.170397,0.000755,-0.035640,-0.010791,0.000101,0.025824,0.010956,0.000076,0.264731,0.005757,0.000355,-0.000009,0.215256,-0.194286,1.000000,0.028168,25.6162,1
4.3125,0.227166,-0.212394,1.000838,-0.287533,0.177460,0.000715,-0.035088,-0.010562,0.000097,0.026980,0.011019,0.000084,0.264723,0.005668,0.000352,-0.000009,0.209330,-0.190101,1.000000,0.028562,39.2909,1
4.3333,0.221153,-0.208610,1.000853,-0.289358,0.184401,0.000673,-0.034511,-0.010331,0.000093,0.028116,0.011082,0.000092,0.264715,0.005574,0.000348,-0.000010,0.203368,-0.185786,1.000000,0.028947,31.3668,1
4.3542,0.215102,-0.204683,1.000866,-0.291133,0.191214,0.000630,-0.033911,-0.010100,0.000089,0.029232,0.011144,0.000099,0.264707,0.005478,0.000344,-0.000010,0.197372,-0.181344,1.000000,0.029323,30.2732,1
4.3750,0.209015,-0.200616,1.000879,-0.292857,0.197896,0.000585,-0.033289,-0.009867,0.000085,0.030328,0.011204,0.000105,0.264699,0.005378,0.000340,-0.000011,0.191342,-0.176777,1.000000,0.029689,36.4830,1
4.3958,0.202893,-0.196411,1.000890,-0.294531,0.204440,0.000538,-0.032643,-0.009633,0.000081,0.031402,0.011264,0.000111,0.264691,0.005276,0.000336,-0.000011,0.185279,-0.172089,1.000000,0.030044,24.4243,1
4.4167,0.196737,-0.192071,1.000901,-0.296153,0.210844,0.000490,-0.031976,-0.009397,0.000077,0.032454,0.011323,0.000116,0.264683,0.005170,0.000332,-0.000012,0.179184,-0.167283,1.000000,0.030387,29.1872,1
4.4375,0.190547,-0.187600,1.000911,-0.297725,0.217103,0.000441,-0.031287,-0.009161,0.000073,0.033484,0.011382,0.000121,0.264675,0.005061,0.000329,-0.000013,0.173059,-0.162362,1.000000,0.030719,24.9064,1
4.4583,0.184325,-0.183001,1.000919,-0.299245,0.223212,0.000391,-0.030577,-0.008923,0.000069,0.034490,0.011439,0.000125,0.264667,0.004949,0.000325,-0.000013,0.166903,-0.157330,1.000000,0.031038,31.0788,1
4.4792,0.178073,-0.178276,1.000927,-0.300713,0.229167,0.000340,-0.029846,-0.008684,0.000065,0.035473,0.011496,0.000129,0.264660,0.004834,0.000321,-0.000014,0.160720,-0.152190,1.000000,0.031344,34.8616,1
4.5000,0.171790,-0.173429,1.000933,-0.302130,0.234964,0.000288,-0.029095,-0.008444,0.000061,0.036431,0.011551,0.000132,0.264652,0.004717,0.000317,-0.000014,0.154508,-0.146946,1.000000,0.031636,28.7242,1
4.5208,0.165478,-0.168463,1.000938,-0.303495,0.240599,0.000235,-0.028324,-0.008203,0.000058,0.037364,0.011606,0.000135,0.264645,0.004597,0.000313,-0.000015,0.148271,-0.141602,1.000000,0.031914,26.6454,1
4.5417,0.159139,-0.163382,1.000943,-0.304807,0.246069,0.000181,-0.027534,-0.007960,0.000054,0.038272,0.011660,0.000137,0.264638,0.004473,0.000309,-0.000016,0.142008,-0.136160,1.000000,0.032178,46.5903,1
4.5625,0.152773,-0.158189,1.000946,-0.306068,0.251369,0.000127,-0.026726,-0.007717,0.000051,0.039154,0.011713,0.000138,0.264631,0.004348,0.000304,-0.000017,0.135720,-0.130625,1.000000,0.032427,37.6153,1
4.5833,0.146382,-0.152888,1.000948,-0.307276,0.256497,0.000073,-0.025899,-0.007472,0.000047,0.040009,0.011765,0.000140,0.264624,0.004219,0.000300,-0.000017,0.129410,-0.125000,1.000000,0.032660,31.8010,1
4.6042,0.139965,-0.147482,1.000948,-0.308432,0.261448,0.000018,-0.025056,-0.007226,0.000044,0.040837,0.011816,0.000140,0.264618,0.004088,0.000296,-0.000018,0.123077,-0.119290,1.000000,0.032877,41.5201,1
4.6250,0.133526,-0.141975,1.000948,-0.309535,0.266220,-0.000036,-0.024195,-0.006979,0.000041,0.041638,0.011866,0.000140,0.264612,0.003955,0.000291,-0.000019,0.116723,-0.113498,1.000000,0.033079,32.9342,1
4.6458,0.127064,-0.136371,1.000947,-0.310586,0.270809,-0.000091,-0.023318,-0.006732,0.000038,0.042411,0.011916,0.000140,0.264606,0.003819,0.000286,-0.000019,0.110349,-0.107628,1.000000,0.033264,40.5657,1
4.6667,0.120581,-0.130674,1.000944,-0.311584,0.275212,-0.000146,-0.022425,-0.006483,0.000035,0.043155,0.011964,0.000139,0.264600,0.003681,0.000281,-0.000020,0.103956,-0.101684,1.000000,0.033432,26.2487,1
4.6875,0.114078,-0.124887,1.000940,-0.312529,0.279426,-0.000200,-0.021517,-0.006233,0.000032,0.043870,0.012011,0.000138,0.264595,0.003541,0.000277,-0.000021,0.097545,-0.095671,1.000000,0.033583,25.6150,1
4.7083,0.107555,-0.119015,1.000936,-0.313420,0.283448,-0.000254,-0.020594,-0.005982,0.000029,0.044556,0.012057,0.000136,0.264590,0.003398,0.000272,-0.000022,0.091118,-0.089592,1.000000,0.033717,40.2997,1
4.7292,0.101015,-0.113062,1.000930,-0.314259,0.287276,-0.000307,-0.019658,-0.005731,0.000027,0.045213,0.012102,0.000134,0.264586,0.003253,0.000266,-0.000022,0.084675,-0.083452,1.000000,0.033833,29.2187,1
4.7500,0.094458,-0.107031,1.000923,-0.315044,0.290907,-0.000360,-0.018708,-0.005478,0.000024,0.045838,0.012146,0.000131,0.264582,0.003106,0.000261,-0.000023,0.078217,-0.077254,1.000000,0.033931,29.4771,1
4.7708,0.087886,-0.100928,1.000914,-0.315776,0.294338,-0.000412,-0.017745,-0.005224,0.000021,0.046434,0.012189,0.000128,0.264578,0.002958,0.000256,-0.000024,0.071746,-0.071004,1.000000,0.034011,30.7453,1
4.7917,0.081298,-0.094755,1.000905,-0.316455,0.297568,-0.000462,-0.016771,-0.004970,0.000019,0.046998,0.012230,0.000125,0.264574,0.002807,0.000250,-0.000024,0.065263,-0.064705,1.000000,0.034073,34.8752,1
4.8125,0.074698,-0.088517,1.000895,-0.317080,0.300594,-0.000512,-0.015785,-0.004715,0.000017,0.047531,0.012271,0.000121,0.264571,0.002655,0.000245,-0.000025,0.058769,-0.058361,1.000000,0.034116,23.3696,1
4.8333,0.068085,-0.082219,1.000884,-0.317652,0.303414,-0.000561,-0.014789,-0.004459,0.000015,0.048033,0.012310,0.000116,0.264569,0.002500,0.000239,-0.000026,0.052264,-0.051978,1.000000,0.034141,27.8895,1
4.8542,0.061460,-0.075865,1.000871,-0.318170,0.306027,-0.000608,-0.013782,-0.004202,0.000013,0.048502,0.012348,0.000112,0.264566,0.002344,0.000233,-0.000027,0.045751,-0.045559,1.000000,0.034147,30.2739,1
4.8750,0.054826,-0.069459,1.000858,-0.318635,0.308430,-0.000654,-0.012766,-0.003944,0.000011,0.048939,0.012385,0.000107,0.264564,0.002187,0.000227,-0.000027,0.039230,-0.039109,1.000000,0.034134,29.2711,1
4.8958,0.048182,-0.063006,1.000844,-0.319046,0.310622,-0.000698,-0.011742,-0.003686,0.000009,0.049343,0.012420,0.000101,0.264563,0.002028,0.000220,-0.000028,0.032702,-0.032632,1.000000,0.034102,28.6865,1
4.9167,0.041531,-0.056510,1.000829,-0.319403,0.312601,-0.000741,-0.010709,-0.003426,0.000008,0.049715,0.012454,0.000095,0.264562,0.001868,0.000214,-0.000029,0.026168,-0.026132,1.000000,0.034051,31.6520,1
4.9375,0.034873,-0.049975,1.000813,-0.319706,0.314367,-0.000782,-0.009669,-0.003166,0.000006,0.050053,0.012487,0.000089,0.264561,0.001706,0.000207,-0.000029,0.019630,-0.019615,1.000000,0.033981,32.7950,1
4.9583,0.028209,-0.043406,1.000796,-0.319956,0.315918,-0.000820,-0.008622,-0.002906,0.000005,0.050358,0.012519,0.000083,0.264561,0.001543,0.000201,-0.000030,0.013088,-0.013084,1.000000,0.033892,32.2020,1
4.9792,0.021541,-0.036807,1.000779,-0.320152,0.317252,-0.000857,-0.007570,-0.002645,0.000003,0.050630,0.012549,0.000076,0.264562,0.001379,0.000194,-0.000031,0.006545,-0.006544,1.000000,0.033783,24.2612,1
5.0000,0.014869,-0.030183,1.000760,-0.320294,0.318370,-0.000892,-0.006512,-0.002383,0.000002,0.050867,0.012577,0.000070,0.264562,0.001214,0.000187,-0.000031,0.000000,-0.000000,1.000000,0.033655,27.4694,1
5.0208,0.008195,-0.023539,1.000741,-0.320382,0.319271,-0.000925,-0.005450,-0.002121,0.000001,0.051071,0.012604,0.000062,0.264563,0.001048,0.000180,-0.000032,-0.006545,0.006544,1.000000,0.033508,31.5309,1
5.0417,0.001520,-0.016878,1.000722,-0.320416,0.319953,-0.000955,-0.004384,-0.001858,0.000000,0.051241,0.012630,0.000055,0.264565,0.000881,0.000172,-0.000032,-0.013088,0.013084,1.000000,0.033342,37.5195,1
5.0625,-0.005155,-0.010207,1.000701,-0.320397,0.320416,-0.000983,-0.003314,-0.001594,-0.000001,0.051376,0.012654,0.000048,0.264567,0.000713,0.000165,-0.000033,-0.019630,0.019615,1.000000,0.033156,23.6766,1
5.0833,-0.011829,-0.003528,1.000681,-0.320323,0.320661,-0.001009,-0.002243,-0.001330,-0.000001,0.051477,0.012677,0.000040,0.264569,0.000545,0.000157,-0.000033,-0.026168,0.026132,1.000000,0.032951,33.1535,1
5.1042,-0.018501,0.003153,1.000659,-0.320196,0.320687,-0.001032,-0.001170,-0.001066,-0.000002,0.051543,0.012697,0.000032,0.264572,0.000376,0.000149,-0.000034,-0.032702,0.032632,1.000000,0.032727,30.4058,1
5.1250,-0.025170,0.009832,1.000637,-0.320016,0.320493,-0.001053,-0.000095,-0.000801,-0.000002,0.051575,0.012717,0.000024,0.264575,0.000207,0.000141,-0.000034,-0.039230,0.039109,1.000000,0.032484,19.6218,1
5.1458,-0.031834,0.016504,1.000615,-0.319781,0.320081,-0.001071,0.000979,-0.000536,-0.000003,0.051572,0.012734,0.000016,0.264579,0.000037,0.000132,-0.000035,-0.045751,0.045559,1.000000,0.032221,31.8658,1
5.1667,-0.038492,0.023165,1.000593,-0.319493,0.319450,-0.001086,0.002053,-0.000271,-0.000003,0.051534,0.012750,0.000008,0.264583,-0.000133,0.000124,-0.000035,-0.052264,0.051978,1.000000,0.031940,31.9700,1
5.1875,-0.045144,0.029810,1.000570,-0.319151,0.318601,-0.001099,0.003126,-0.000005,-0.000003,0.051462,0.012764,-0.000001,0.264587,-0.000303,0.000115,-0.000036,-0.058769,0.058361,1.000000,0.031640,29.6085,1
5.2083,-0.051789,0.036435,1.000547,-0.318755,0.317535,-0.001109,0.004197,0.000261,-0.000003,0.051355,0.012777,-0.000009,0.264592,-0.000473,0.000106,-0.000036,-0.065263,0.064705,1.000000,0.031322,24.9171,1
5.2292,-0.058424,0.043034,1.000524,-0.318306,0.316252,-0.001116,0.005265,0.000528,-0.000003,0.051213,0.012787,-0.000017,0.264597,-0.000643,0.000097,-0.000036,-0.071746,0.071004,1.000000,0.030985,21.7071,1
5.2500,-0.065049,0.049605,1.000500,-0.317804,0.314752,-0.001120,0.006329,0.000794,-0.000002,0.051037,0.012796,-0.000026,0.264602,-0.000813,0.000088,-0.000037,-0.078217,0.077254,1.000000,0.030629,21.8933,1
5.2708,-0.071663,0.056141,1.000477,-0.317248,0.313038,-0.001122,0.007390,0.001061,-0.000002,0.050826,0.012803,-0.000034,0.264608,-0.000982,0.000079,-0.000037,-0.084675,0.083452,1.000000,0.030256,24.9705,1
5.2917,-0.078265,0.062639,1.000454,-0.316639,0.311110,-0.001121,0.008446,0.001328,-0.000002,0.050580,0.012808,-0.000043,0.264614,-0.001151,0.000069,-0.000037,-0.091118,0.089592,1.000000,0.029864,21.8246,1
5.3125,-0.084853,0.069094,1.000430,-0.315976,0.308969,-0.001117,0.009496,0.001594,-0.000001,0.050301,0.012810,-0.000051,0.264620,-0.001320,0.000059,-0.000037,-0.097545,0.095671,1.000000,0.029455,24.1437,1
5.3333,-0.091427,0.075502,1.000407,-0.315261,0.306618,-0.001110,0.010540,0.001861,-0.000000,0.049986,0.012811,-0.000059,0.264627,-0.001488,0.000049,-0.000038,-0.103956,0.101684,1.000000,0.029029,22.2435,1
5.3542,-0.097986,0.081858,1.000384,-0.314492,0.304057,-0.001100,0.011577,0.002128,0.000000,0.049638,0.012810,-0.000067,0.264633,-0.001655,0.000039,-0.000038,-0.110349,0.107628,1.000000,0.028585,26.3956,1
5.3750,-0.104527,0.088158,1.000362,-0.313671,0.301288,-0.001088,0.012606,0.002395,0.000001,0.049256,0.012807,-0.000075,0.264640,-0.001822,0.000029,-0.000038,-0.116723,0.113498,1.000000,0.028124,22.1093,1
5.3958,-0.111051,0.094398,1.000339,-0.312796,0.298314,-0.001073,0.013627,0.002662,0.000002,0.048840,0.012802,-0.000083,0.264648,-0.001987,0.000018,-0.000038,-0.123077,0.119290,1.000000,0.027646,30.2415,1
5.4167,-0.117556,0.100574,1.000317,-0.311869,0.295135,-0.001055,0.014639,0.002928,0.000003,0.048391,0.012794,-0.000091,0.264655,-0.002152,0.000008,-0.000038,-0.129410,0.125000,1.000000,0.027152,42.0325,1
5.4375,-0.124042,0.106680,1.000295,-0.310890,0.291755,-0.001035,0.015641,0.003195,0.000004,0.047909,0.012785,-0.000099,0.264663,-0.002315,-0.000003,-0.000038,-0.135720,0.130625,1.000000,0.026642,29.4399,1
5.4583,-0.130506,0.112714,1.000274,-0.309858,0.288176,-0.001011,0.016633,0.003461,0.000005,0.047393,0.012773,-0.000106,0.264671,-0.002477,-0.000014,-0.000038,-0.142008,0.136160,1.000000,0.026117,26.0971,1
5.4792,-0.136948,0.118671,1.000253,-0.308774,0.284399,-0.000986,0.017614,0.003727,0.000006,0.046845,0.012759,-0.000113,0.264679,-0.002638,-0.000025,-0.000038,-0.148271,0.141602,1.000000,0.025575,31.8236,1
5.5000,-0.143366,0.124547,1.000233,-0.307637,0.280429,-0.000958,0.018582,0.003993,0.000008,0.046265,0.012743,-0.000120,0.264687,-0.002797,-0.000036,-0.000038,-0.154508,0.146946,1.000000,0.025019,23.4599,1
5.5208,-0.149761,0.130337,1.000213,-0.306449,0.276266,-0.000927,0.019539,0.004258,0.000009,0.045652,0.012724,-0.000127,0.264695,-0.002954,-0.000048,-0.000038,-0.160720,0.152190,1.000000,0.024448,21.8167,1
5.5417,-0.156129,0.136039,1.000195,-0.305209,0.271914,-0.000894,0.020482,0.004523,0.000010,0.045008,0.012704,-0.000133,0.264704,-0.003110,-0.000059,-0.000037,-0.166903,0.157330,1.000000,0.023863,24.2558,1
5.5625,-0.162472,0.141647,1.000176,-0.303917,0.267376,-0.000859,0.021411,0.004787,0.000012,0.044333,0.012680,-0.000139,0.264712,-0.003263,-0.000071,-0.000037,-0.173059,0.162362,1.000000,0.023264,36.4263,1
5.5833,-0.168787,0.147159,1.000159,-0.302574,0.262655,-0.000822,0.022326,0.005051,0.000013,0.043627,0.012655,-0.000145,0.264720,-0.003415,-0.000083,-0.000037,-0.179184,0.167283,1.000000,0.022652,19.9730,1
5.6042,-0.175073,0.152570,1.000142,-0.301180,0.257755,-0.000782,0.023225,0.005314,0.000015,0.042890,0.012627,-0.000150,0.264729,-0.003565,-0.000095,-0.000037,-0.185279,0.172089,1.000000,0.022026,23.4613,1
5.6250,-0.181330,0.157876,1.000127,-0.299734,0.252678,-0.000741,0.024109,0.005577,0.000017,0.042123,0.012597,-0.000155,0.264737,-0.003712,-0.000107,-0.000036,-0.191342,0.176777,1.000000,0.021389,22.8033,1
5.6458,-0.187556,0.163075,1.000112,-0.298238,0.247427,-0.000697,0.024977,0.005839,0.000018,0.041327,0.012564,-0.000160,0.264746,-0.003857,-0.000119,-0.000036,-0.197372,0.181344,1.000000,0.020739,33.7584,1
5.6667,-0.193750,0.168162,1.000098,-0.296691,0.242007,-0.000652,0.025828,0.006100,0.000020,0.040502,0.012529,-0.000164,0.264754,-0.004000,-0.000131,-0.000035,-0.203368,0.185786,1.000000,0.020078,35.8753,1
5.6875,-0.199911,0.173135,1.000085,-0.295094,0.236422,-0.000606,0.026661,0.006361,0.000022,0.039649,0.012491,-0.000168,0.264762,-0.004140,-0.000144,-0.000035,-0.209330,0.190101,1.000000,0.019406,33.0961,1
5.7083,-0.206038,0.177989,1.000073,-0.293447,0.230674,-0.000557,0.027476,0.006620,0.000023,0.038767,0.012451,-0.000172,0.264771,-0.004277,-0.000156,-0.000034,-0.215256,0.194286,1.000000,0.018724,51.0032,1
5.7292,-0.212130,0.182721,1.000062,-0.291750,0.224768,-0.000508,0.028272,0.006879,0.000025,0.037859,0.012408,-0.000175,0.264779,-0.004412,-0.000169,-0.000034,-0.221144,0.198338,1.000000,0.018032,46.0904,1
5.7500,-0.218187,0.187328,1.000052,-0.290003,0.218707,-0.000457,0.029049,0.007137,0.000027,0.036923,0.012363,-0.000177,0.264787,-0.004544,-0.000182,-0.000033,-0.226995,0.202254,1.000000,0.017332,48.6588,1
5.7708,-0.224206,0.191807,1.000043,-0.288206,0.212497,-0.000405,0.029806,0.007394,0.000029,0.035962,0.012315,-0.000180,0.264794,-0.004673,-0.000195,-0.000033,-0.232807,0.206032,1.000000,0.016623,44.0197,1
5.7917,-0.230187,0.196155,1.000035,-0.286361,0.206140,-0.000352,0.030543,0.007650,0.000031,0.034974,0.012265,-0.000181,0.264802,-0.004799,-0.000208,-0.000032,-0.238579,0.209668,1.000000,0.015907,39.0108,1
5.8125,-0.236130,0.200368,1.000029,-0.284466,0.199642,-0.000298,0.031259,0.007905,0.000032,0.033962,0.012212,-0.000182,0.264809,-0.004921,-0.000221,-0.000031,-0.244311,0.213160,1.000000,0.015184,30.1692,1
5.8333,-0.242032,0.204445,1.000023,-0.282523,0.193007,-0.000243,0.031954,0.008159,0.000034,0.032926,0.012156,-0.000183,0.264816,-0.005041,-0.000234,-0.000031,-0.250000,0.216506,1.000000,0.014456,41.3873,1
5.8542,-0.247893,0.208381,1.000019,-0.280532,0.186238,-0.000188,0.032627,0.008411,0.000036,0.031866,0.012098,-0.000183,0.264823,-0.005157,-0.000247,-0.000030,-0.255647,0.219704,1.000000,0.013723,33.4322,1
5.8750,-0.253712,0.212175,1.000016,-0.278493,0.179342,-0.000132,0.033277,0.008662,0.000038,0.030784,0.012037,-0.000183,0.264830,-0.005269,-0.000260,-0.000029,-0.261249,0.222752,1.000000,0.012987,31.6312,1
5.8958,-0.259488,0.215824,1.000013,-0.276406,0.172322,-0.000076,0.033905,0.008912,0.000039,0.029679,0.011974,-0.000182,0.264837,-0.005378,-0.000274,-0.000028,-0.266807,0.225646,1.000000,0.012249,29.4671,1
5.9167,-0.265220,0.219325,1.000013,-0.274271,0.165183,-0.000020,0.034509,0.009161,0.000041,0.028553,0.011908,-0.000181,0.264843,-0.005483,-0.000287,-0.000028,-0.272320,0.228386,1.000000,0.011511,33.0942,1
5.9375,-0.270907,0.222676,1.000013,-0.272090,0.157930,0.000036,0.035089,0.009408,0.000043,0.027407,0.011839,-0.000179,0.264848,-0.005585,-0.000300,-0.000027,-0.277785,0.230970,1.000000,0.010775,31.9176,1
5.9583,-0.276547,0.225874,1.000014,-0.269861,0.150569,0.000092,0.035646,0.009654,0.000044,0.026240,0.011767,-0.000176,0.264854,-0.005683,-0.000314,-0.000026,-0.283203,0.233395,1.000000,0.010043,18.7371,1
5.9792,-0.282141,0.228918,1.000017,-0.267586,0.143103,0.000147,0.036178,0.009898,0.000046,0.025055,0.011693,-0.000173,0.264859,-0.005776,-0.000327,-0.000025,-0.288573,0.235660,1.000000,0.009318,21.6451,1
6.0000,-0.287687,0.231805,1.000021,-0.265266,0.135538,0.000202,0.036685,0.010141,0.000047,0.023852,0.011616,-0.000169,0.264864,-0.005866,-0.000341,-0.000024,-0.293893,0.237764,1.000000,0.008604,18.6603,1
6.0208,-0.293184,0.234533,1.000026,-0.262899,0.127880,0.000257,0.037166,0.010382,0.000049,0.022631,0.011537,-0.000165,0.264868,-0.005952,-0.000354,-0.000023,-0.299162,0.239705,1.000000,0.007905,23.9182,1
6.0417,-0.298631,0.237100,1.000032,-0.260487,0.120133,0.000311,0.037623,0.010621,0.000050,0.021394,0.011455,-0.000161,0.264872,-0.006033,-0.000368,-0.000022,-0.304381,0.241481,1.000000,0.007229,18.9016,1
6.0625,-0.304027,0.239506,1.000039,-0.258030,0.112303,0.000364,0.038053,0.010858,0.000052,0.020141,0.011370,-0.000155,0.264876,-0.006110,-0.000381,-0.000021,-0.309547,0.243092,1.000000,0.006583,26.0909,1
6.0833,-0.309371,0.241746,1.000047,-0.255528,0.104394,0.000415,0.038456,0.011094,0.000053,0.018874,0.011282,-0.000149,0.264879,-0.006183,-0.000395,-0.000020,-0.314660,0.244537,1.000000,0.005980,22.2700,1
