Time_s,Pos_X_m,Pos_Y_m,Pos_Z_m,Vel_X_ms,Vel_Y_ms,Vel_Z_ms,Roll_rad,Pitch_rad,Yaw_rad,AngVel_P_rads,AngVel_Q_rads,AngVel_R_rads,Thrust_N,Roll_Rate_Cmd_rads,Pitch_Rate_Cmd_rads,Yaw_Rate_Cmd_rads,Ref_X_m,Ref_Y_m,Ref_Z_m,Position_Error_m,Solve_Time_ms,Solve_Success
0.0000,0.000000,0.000000,0.100000,0.000000,0.000000,0.000000,0.000000,0.000000,0.000000,0.000000,0.000000,0.000000,20.000000,-0.879160,0.921503,0.000205,0.000000,0.000000,1.000000,0.900000,297.3199,1
0.0208,0.000000,0.000000,0.103170,0.000000,0.000000,0.253580,0.000000,0.000000,0.000000,0.000000,0.000000,0.000000,20.000000,-0.949148,1.000780,0.000216,0.006545,0.006544,1.000000,0.896878,94.5559,1
0.0417,0.000000,0.000000,0.111620,0.000000,0.000000,0.506852,0.000000,0.000000,0.000000,0.000000,0.000000,0.000000,20.000000,-0.991461,1.051775,0.000212,0.013088,0.013084,1.000000,0.888573,54.0450,1
0.0625,0.000000,0.000000,0.125341,0.000000,0.000000,0.759710,0.000000,0.000000,0.000000,0.000000,0.000000,0.000000,20.000000,-1.004691,1.072588,0.000203,0.019630,0.019615,1.000000,0.875100,59.3150,1
0.0833,0.000000,0.000000,0.144323,0.000000,0.000000,1.012049,0.000000,0.000000,0.000000,0.000000,0.000000,0.000000,20.000000,-0.976283,1.049315,0.000192,0.026168,0.026132,1.000000,0.856476,52.3458,1
0.1042,0.000000,0.000000,0.168555,0.000000,0.000000,1.263763,0.000000,0.000000,0.000000,0.000000,0.000000,0.000000,20.000000,-0.900567,0.975180,0.000181,0.032702,0.032632,1.000000,0.832728,53.8039,1
0.1250,0.000000,0.000000,0.198022,0.000000,0.000000,1.514748,0.000000,0.000000,0.000000,0.000000,0.000000,0.000000,20.000000,-0.789461,0.862297,0.000175,0.039230,0.039109,1.000000,0.803889,41.3096,1
0.1458,0.000000,0.000000,0.232708,0.000000,0.000000,1.764902,0.000000,0.000000,0.000000,0.000000,0.000000,0.000000,20.000000,-0.685543,0.756337,0.000177,0.045751,0.045559,1.000000,0.770004,54.0140,1
0.1667,0.000000,0.000000,0.272593,0.000000,0.000000,2.014124,0.000000,0.000000,0.000000,0.000000,0.000000,0.000000,11.444328,-0.649313,0.723461,0.000183,0.052264,0.051978,1.000000,0.731132,61.6703,1
0.1875,0.000000,0.000000,0.317658,0.000000,0.000000,2.262314,0.000000,0.000000,0.000000,0.000000,0.000000,0.000000,7.850000,-0.764705,0.861318,0.000270,0.058769,0.058361,1.000000,0.687350,57.1375,1
0.2083,0.000000,0.000000,0.367880,0.000000,0.000000,2.509373,0.000000,0.000000,0.000000,0.000000,0.000000,0.000000,7.850000,-1.051724,1.199765,0.000549,0.065263,0.064705,1.000000,0.638766,63.1022,1
0.2292,0.000000,0.000000,0.423234,0.000000,0.000000,2.755206,0.000000,0.000000,0.000000,0.000000,0.000000,0.000000,7.850000,-1.799913,2.084867,0.001772,0.071746,0.071004,1.000000,0.585533,49.3746,1
0.2500,0.000000,0.000000,0.483693,0.000000,0.000000,2.999718,0.000000,0.000000,0.000000,0.000000,0.000000,0.000000,7.850000,-5.999465,5.999994,0.011400,0.078217,0.077254,1.000000,0.527882,79.9191,1
0.2708,0.000000,0.000000,0.549228,0.000000,0.000000,3.242817,0.000000,0.000000,0.000000,0.000000,0.000000,0.000000,7.850000,-6.000000,6.000000,0.021895,0.084675,0.083452,1.000000,0.466186,69.4039,1
0.2917,0.000000,0.000000,0.619809,0.000000,0.000000,3.484414,0.000000,0.000000,0.000000,0.000000,0.000000,0.000000,7.850000,-6.000000,6.000000,0.025033,0.091118,0.089592,1.000000,0.401091,66.5717,1
0.3125,0.000000,0.000000,0.695404,0.000000,0.000000,3.724420,0.000000,0.000000,0.000000,0.000000,0.000000,0.000000,7.850000,-6.000000,6.000000,0.027348,0.097545,0.095671,1.000000,0.333837,64.0488,1
0.3333,0.000000,0.000000,0.775978,0.000000,0.000000,3.962750,0.000000,0.000000,0.000000,0.000000,0.000000,0.000000,7.850000,-6.000000,6.000000,0.036212,0.103956,0.101684,1.000000,0.267081,51.9547,1
0.3542,0.000000,0.000000,0.861495,0.000000,0.000000,4.199323,0.000000,0.000000,0.000000,0.000000,0.000000,0.000000,7.850000,-6.000000,6.000000,0.032761,0.110349,0.107628,1.000000,0.207230,70.8942,1
0.3750,0.000000,0.000000,0.951919,0.000000,0.000000,4.434058,0.000000,0.000000,0.000000,0.000000,0.000000,0.000000,7.850000,-6.000000,6.000000,0.054269,0.116723,0.113498,1.000000,0.169758,81.7215,1
0.3958,0.000000,0.000000,1.047208,0.000000,0.000000,4.666878,0.000000,0.000000,0.000000,0.000000,0.000000,0.000000,7.850000,-6.000000,6.000000,0.056473,0.123077,0.119290,1.000000,0.177782,144.6545,1
0.4167,0.000000,0.000000,1.147324,0.000000,0.000000,4.897709,0.000000,0.000000,0.000000,0.000000,0.000000,0.000000,7.850000,-6.000000,6.000000,0.067995,0.129410,0.125000,1.000000,0.232543,107.1889,1
0.4375,0.000000,0.000000,1.252222,0.000000,0.000000,5.126480,0.000000,0.000000,0.000000,0.000000,0.000000,0.000000,7.850000,-6.000000,6.000000,0.117279,0.135720,0.130625,1.000000,0.314800,88.6078,1
0.4583,0.000000,0.000000,1.361861,0.000000,0.000000,5.353123,0.000000,0.000000,0.000000,0.000000,0.000000,0.000000,7.850000,-6.000000,6.000000,0.141228,0.142008,0.136160,1.000000,0.411884,73.6251,1
0.4792,0.000000,0.000000,1.476193,0.000000,0.000000,5.577572,0.000000,0.000000,0.000000,0.000000,0.000000,0.000000,7.850000,-6.000000,6.000000,0.173954,0.148271,0.141602,1.000000,0.518455,68.3208,1
0.5000,0.000000,0.000000,1.595174,0.000000,0.000000,5.799765,0.000000,0.000000,0.000000,0.000000,0.000000,0.000000,7.850000,-6.000000,6.000000,0.224132,0.154508,0.146946,1.000000,0.632217,86.8342,1
0.5208,0.000000,0.000000,1.718755,0.000000,0.000000,6.019643,0.000000,0.000000,0.000000,0.000000,0.000000,0.000000,7.850000,-6.000000,6.000000,0.314620,0.160720,0.152190,1.000000,0.752065,79.7889,1
0.5417,0.000000,0.000000,1.846887,0.000000,0.000000,6.237150,0.000000,0.000000,0.000000,0.000000,0.000000,0.000000,7.850000,-6.000000,6.000000,0.367414,0.166903,0.157330,1.000000,0.877398,76.6821,1
0.5625,0.000000,0.000000,1.979520,0.000000,0.000000,6.452234,0.000000,0.000000,0.000000,0.000000,0.000000,0.000000,7.850000,-6.000000,6.000000,0.423746,0.173059,0.162362,1.000000,1.007854,64.7998,1
0.5833,0.000000,0.000000,2.116603,0.000000,0.000000,6.664844,0.000000,0.000000,0.000000,0.000000,0.000000,0.000000,7.850000,-6.000000,6.000000,0.482778,0.179184,0.167283,1.000000,1.143195,79.4315,1
0.6042,0.000000,0.000000,2.258085,0.000000,0.000000,6.874936,0.000000,0.000000,0.000000,0.000000,0.000000,0.000000,7.850000,-6.000000,6.000000,0.542359,0.185279,0.172089,1.000000,1.283246,98.9351,1
0.6250,0.000000,0.000000,2.403911,0.000000,0.000000,7.082465,0.000000,0.000000,0.000000,0.000000,0.000000,0.000000,7.850000,-6.000000,6.000000,0.599350,0.191342,0.176777,1.000000,1.427875,114.9933,1
0.6458,0.000000,0.000000,2.554028,0.000000,0.000000,7.287393,0.000000,0.000000,0.000000,0.000000,0.000000,0.000000,7.850000,-6.000000,6.000000,0.638664,0.197372,0.181344,1.000000,1.576973,73.9055,1
0.6667,0.000000,0.000000,2.708382,0.000000,0.000000,7.489681,0.000000,0.000000,0.000000,0.000000,0.000000,0.000000,7.850000,-6.000000,6.000000,0.686625,0.203368,0.185786,1.000000,1.730446,91.6376,1
0.6875,0.000000,0.000000,2.866917,0.000000,0.000000,7.689296,0.000000,0.000000,0.000000,0.000000,0.000000,0.000000,7.850000,-6.000000,6.000000,0.723231,0.209330,0.190101,1.000000,1.888210,109.6377,1
0.7083,0.000000,0.000000,3.029576,0.000000,0.000000,7.886209,0.000000,0.000000,0.000000,0.000000,0.000000,0.000000,7.850000,-6.000000,6.000000,0.757978,0.215256,0.194286,1.000000,2.050186,82.3023,1
0.7292,0.000000,0.000000,3.196304,0.000000,0.000000,8.080391,0.000000,0.000000,0.000000,0.000000,0.000000,0.000000,7.850000,-6.000000,6.000000,0.791440,0.221144,0.198338,1.000000,2.216302,93.2519,1
0.7500,0.000000,0.000000,3.367043,0.000000,0.000000,8.271819,0.000000,0.000000,0.000000,0.000000,0.000000,0.000000,7.850000,-6.000000,6.000000,1.055324,0.226995,0.202254,1.000000,2.386488,184.1841,1
0.7708,0.000000,0.000000,3.541736,0.000000,0.000000,8.460470,0.000000,0.000000,0.000000,0.000000,0.000000,0.000000,7.850000,-6.000000,6.000000,1.038819,0.232807,0.206032,1.000000,2.560677,111.5770,1
0.7917,0.000000,0.000000,3.720323,0.000000,0.000000,8.646327,0.000000,0.000000,0.000000,0.000000,0.000000,0.000000,7.850000,-6.000000,6.000000,1.021612,0.238579,0.209668,1.000000,2.738802,95.3746,1
0.8125,0.000000,0.000000,3.902748,0.000000,0.000000,8.829374,0.000000,0.000000,0.000000,0.000000,0.000000,0.000000,7.850000,-6.000000,6.000000,0.986099,0.244311,0.213160,1.000000,2.920800,64.5437,1
0.8333,0.000000,0.000000,4.088951,0.000000,0.000000,9.009597,0.000000,0.000000,0.000000,0.000000,0.000000,0.000000,7.850000,-6.000000,6.000000,0.954968,0.250000,0.216506,1.000000,3.106604,131.9141,1
0.8542,0.000000,0.000000,4.278873,0.000000,0.000000,9.186988,0.000000,0.000000,0.000000,0.000000,0.000000,0.000000,7.850000,-6.000000,6.000000,0.929861,0.255647,0.219704,1.000000,3.296154,121.7976,1
0.8750,0.000000,0.000000,4.472455,0.000000,0.000000,9.361538,0.000000,0.000000,0.000000,0.000000,0.000000,0.000000,7.850000,-6.000000,6.000000,0.906729,0.261249,0.222752,1.000000,3.489386,86.7310,1
0.8958,0.000000,0.000000,4.669638,0.000000,0.000000,9.533244,0.000000,0.000000,0.000000,0.000000,0.000000,0.000000,7.850000,-6.000000,6.000000,0.884089,0.266807,0.225646,1.000000,3.686237,74.5459,1
0.9167,0.000000,0.000000,4.870363,0.000000,0.000000,9.702102,0.000000,0.000000,0.000000,0.000000,0.000000,0.000000,7.850000,-6.000000,6.000000,0.861939,0.272320,0.228386,1.000000,3.886647,77.0583,1
0.9375,0.000000,0.000000,5.074570,0.000000,0.000000,9.868114,0.000000,0.000000,0.000000,0.000000,0.000000,0.000000,7.850000,-6.000000,6.000000,0.840279,0.277785,0.230970,1.000000,4.090554,88.9194,1
0.9583,0.000000,0.000000,5.282200,0.000000,0.000000,10.031281,0.000000,0.000000,0.000000,0.000000,0.000000,0.000000,7.850000,-6.000000,6.000000,0.815143,0.283203,0.233395,1.000000,4.297896,115.3100,1
0.9792,0.000000,0.000000,5.493194,0.000000,0.000000,10.191608,0.000000,0.000000,0.000000,0.000000,0.000000,0.000000,7.850000,-6.000000,6.000000,0.790006,0.288573,0.235660,1.000000,4.508614,88.6545,1
1.0000,0.000000,0.000000,5.707492,0.000000,0.000000,10.349103,0.000000,0.000000,0.000000,0.000000,0.000000,0.000000,7.850000,-6.000000,6.000000,0.765144,0.293893,0.237764,1.000000,4.722646,89.5574,1
1.0208,0.000000,0.000000,5.925037,0.000000,0.000000,10.503776,0.000000,0.000000,0.000000,0.000000,0.000000,0.000000,7.850000,-6.000000,6.000000,0.740619,0.299162,0.239705,1.000000,4.939933,116.7791,1
1.0417,0.000000,0.000000,6.145768,0.000000,0.000000,10.655636,0.000000,0.000000,0.000000,0.000000,0.000000,0.000000,7.850000,-6.000000,6.000000,0.713314,0.304381,0.241481,1.000000,5.160416,108.8121,1
1.0625,0.000000,0.000000,6.369628,0.000000,0.000000,10.804698,0.000000,0.000000,0.000000,0.000000,0.000000,0.000000,7.850000,-6.000000,6.000000,0.666572,0.309547,0.243092,1.000000,5.384034,121.1603,1
1.0833,0.000000,0.000000,6.596559,0.000000,0.000000,10.950975,0.000000,0.000000,0.000000,0.000000,0.000000,0.000000,7.850000,-6.000000,6.000000,0.621702,0.314660,0.244537,1.000000,5.610730,143.9793,1
1.1042,0.000000,0.000000,6.826503,0.000000,0.000000,11.094486,0.000000,0.000000,0.000000,0.000000,0.000000,0.000000,7.850000,-6.000000,6.000000,0.583862,0.319720,0.245814,1.000000,5.840444,116.4105,1
1.1250,0.000000,0.000000,7.059402,0.000000,0.000000,11.235249,0.000000,0.000000,0.000000,0.000000,0.000000,0.000000,7.850000,-6.000000,6.000000,0.559575,0.324724,0.246922,1.000000,6.073119,123.8587,1
1.1458,0.000000,0.000000,7.295200,0.000000,0.000000,11.373283,0.000000,0.000000,0.000000,0.000000,0.000000,0.000000,7.850000,-6.000000,6.000000,0.536560,0.329673,0.247861,1.000000,6.308698,110.1179,1
1.1667,0.000000,0.000000,7.533840,0.000000,0.000000,11.508611,0.000000,0.000000,0.000000,0.000000,0.000000,0.000000,7.850000,-6.000000,6.000000,0.516111,0.334565,0.248630,1.000000,6.547122,146.5838,1
1.1875,0.000000,0.000000,7.775265,0.000000,0.000000,11.641254,0.000000,0.000000,0.000000,0.000000,0.000000,0.000000,7.850000,-6.000000,6.000000,0.496460,0.339400,0.249229,1.000000,6.788337,135.3111,1
1.2083,0.000000,0.000000,8.019420,0.000000,0.000000,11.771238,0.000000,0.000000,0.000000,0.000000,0.000000,0.000000,7.850000,-6.000000,6.000000,0.478083,0.344177,0.249657,1.000000,7.032286,108.2976,1
1.2292,0.000000,0.000000,8.266251,0.000000,0.000000,11.898589,0.000000,0.000000,0.000000,0.000000,0.000000,0.000000,7.850000,-6.000000,6.000000,0.460540,0.348895,0.249914,1.000000,7.278914,121.1848,1
1.2500,0.000000,0.000000,8.515701,0.000000,0.000000,12.023332,0.000000,0.000000,0.000000,0.000000,0.000000,0.000000,7.850000,-6.000000,6.000000,0.443596,0.353553,0.250000,1.000000,7.528165,98.0115,1
1.2708,0.000000,0.000000,8.767719,0.000000,0.000000,12.145495,0.000000,0.000000,0.000000,0.000000,0.000000,0.000000,7.850000,-6.000000,6.000000,0.427218,0.358151,0.249914,1.000000,7.779986,112.0076,1
1.2917,0.000000,0.000000,9.022249,0.000000,0.000000,12.265108,0.000000,0.000000,0.000000,0.000000,0.000000,0.000000,7.850000,-6.000000,6.000000,0.411387,0.362687,0.249657,1.000000,8.034324,97.2130,1
1.3125,0.000000,0.000000,9.279240,0.000000,0.000000,12.382200,0.000000,0.000000,0.000000,0.000000,0.000000,0.000000,7.850000,-6.000000,6.000000,0.396087,0.367161,0.249229,1.000000,8.291124,123.3389,1
1.3333,0.000000,0.000000,9.538639,0.000000,0.000000,12.496802,0.000000,0.000000,0.000000,0.000000,0.000000,0.000000,7.850000,-6.000000,6.000000,0.381300,0.371572,0.248630,1.000000,8.550336,119.3964,1
1.3542,0.000000,0.000000,9.800395,0.000000,0.000000,12.608945,0.000000,0.000000,0.000000,0.000000,0.000000,0.000000,7.850000,-6.000000,6.000000,0.367011,0.375920,0.247861,1.000000,8.811907,135.5677,1
1.3750,0.000000,0.000000,10.064457,0.000000,0.000000,12.718662,0.000000,0.000000,0.000000,0.000000,0.000000,0.000000,7.850000,-6.000000,6.000000,0.353206,0.380203,0.246922,1.000000,9.075787,134.7663,1
1.3958,0.000000,0.000000,10.330775,0.000000,0.000000,12.825984,0.000000,0.000000,0.000000,0.000000,0.000000,0.000000,7.850000,-6.000000,6.000000,0.339871,0.384421,0.245814,1.000000,9.341925,119.3297,1
1.4167,0.000000,0.000000,10.599299,0.000000,0.000000,12.930946,0.000000,0.000000,0.000000,0.000000,0.000000,0.000000,7.850000,-6.000000,6.000000,0.326991,0.388573,0.244537,1.000000,9.610272,123.1847,1
1.4375,0.000000,0.000000,10.869980,0.000000,0.000000,13.033581,0.000000,0.000000,0.000000,0.000000,0.000000,0.000000,7.850000,-6.000000,6.000000,0.314648,0.392658,0.243092,1.000000,9.880779,120.1122,1
1.4583,0.000000,0.000000,11.142771,0.000000,0.000000,13.133924,0.000000,0.000000,0.000000,0.000000,0.000000,0.000000,7.850000,-6.000000,6.000000,0.302849,0.396677,0.241481,1.000000,10.153397,104.3186,1
1.4792,0.000000,0.000000,11.417624,0.000000,0.000000,13.232009,0.000000,0.000000,0.000000,0.000000,0.000000,0.000000,7.850000,-6.000000,6.000000,0.291581,0.400627,0.239705,1.000000,10.428080,105.8514,1
1.5000,0.000000,0.000000,11.694493,0.000000,0.000000,13.327871,0.000000,0.000000,0.000000,0.000000,0.000000,0.000000,7.850000,-6.000000,6.000000,0.280903,0.404508,0.237764,1.000000,10.704781,126.6174,1
1.5208,0.000000,0.000000,11.973332,0.000000,0.000000,13.421546,0.000000,0.000000,0.000000,0.000000,0.000000,0.000000,7.850000,-6.000000,6.000000,0.271312,0.408321,0.235660,1.000000,10.983454,95.1464,1
1.5417,0.000000,0.000000,12.254095,0.000000,0.000000,13.513068,0.000000,0.000000,0.000000,0.000000,0.000000,0.000000,7.850000,-6.000000,6.000000,0.262169,0.412063,0.233395,1.000000,11.264054,98.0337,1
1.5625,0.000000,0.000000,12.536738,0.000000,0.000000,13.602475,0.000000,0.000000,0.000000,0.000000,0.000000,0.000000,7.850000,-6.000000,6.000000,0.253486,0.415735,0.230970,1.000000,11.546537,118.4788,1
1.5833,0.000000,0.000000,12.821218,0.000000,0.000000,13.689801,0.000000,0.000000,0.000000,0.000000,0.000000,0.000000,7.850000,-6.000000,6.000000,0.245281,0.419335,0.228386,1.000000,11.830858,103.9605,1
1.6042,0.000000,0.000000,13.107492,0.000000,0.000000,13.775082,0.000000,0.000000,0.000000,0.000000,0.000000,0.000000,7.850000,-6.000000,6.000000,0.237487,0.422864,0.225646,1.000000,12.116975,98.4645,1
1.6250,0.000000,0.000000,13.395517,0.000000,0.000000,13.858355,0.000000,0.000000,0.000000,0.000000,0.000000,0.000000,7.850000,-6.000000,6.000000,0.230096,0.426320,0.222752,1.000000,12.404846,93.2837,1
1.6458,0.000000,0.000000,13.685252,0.000000,0.000000,13.939656,0.000000,0.000000,0.000000,0.000000,0.000000,0.000000,7.850000,-6.000000,6.000000,0.222479,0.429703,0.219704,1.000000,12.694429,124.7087,1
1.6667,0.000000,0.000000,13.976657,0.000000,0.000000,14.019019,0.000000,0.000000,0.000000,0.000000,0.000000,0.000000,7.850000,-6.000000,6.000000,0.213788,0.433013,0.216506,1.000000,12.985684,108.6483,1
1.6875,0.000000,0.000000,14.269691,0.000000,0.000000,14.096482,0.000000,0.000000,0.000000,0.000000,0.000000,0.000000,7.850000,-6.000000,6.000000,0.205492,0.436248,0.213160,1.000000,13.278571,131.2776,1
1.7083,0.000000,0.000000,14.564316,0.000000,0.000000,14.172079,0.000000,0.000000,0.000000,0.000000,0.000000,0.000000,7.850000,-6.000000,6.000000,0.197584,0.439409,0.209668,1.000000,13.573051,116.2913,1
1.7292,0.000000,0.000000,14.860493,0.000000,0.000000,14.245847,0.000000,0.000000,0.000000,0.000000,0.000000,0.000000,7.850000,-6.000000,6.000000,0.190059,0.442494,0.206032,1.000000,13.869085,114.3045,1
1.7500,0.000000,0.000000,15.158184,0.000000,0.000000,14.317821,0.000000,0.000000,0.000000,0.000000,0.000000,0.000000,7.850000,-6.000000,6.000000,0.182911,0.445503,0.202254,1.000000,14.166635,128.7730,1
1.7708,0.000000,0.000000,15.457352,0.000000,0.000000,14.388035,0.000000,0.000000,0.000000,0.000000,0.000000,0.000000,7.850000,-6.000000,6.000000,0.176135,0.448436,0.198338,1.000000,14.465665,85.1395,1
1.7917,0.000000,0.000000,15.757962,0.000000,0.000000,14.456525,0.000000,0.000000,0.000000,0.000000,0.000000,0.000000,7.850000,-6.000000,6.000000,0.169728,0.451293,0.194286,1.000000,14.766139,116.0953,1
1.8125,0.000000,0.000000,16.059977,0.000000,0.000000,14.523326,0.000000,0.000000,0.000000,0.000000,0.000000,0.000000,7.850000,-6.000000,6.000000,0.163976,0.454072,0.190101,1.000000,15.068020,88.2127,1
1.8333,0.000000,0.000000,16.363364,0.000000,0.000000,14.588471,0.000000,0.000000,0.000000,0.000000,0.000000,0.000000,7.850000,-6.000000,6.000000,0.158679,0.456773,0.185786,1.000000,15.371275,100.8828,1
1.8542,0.000000,0.000000,16.668087,0.000000,0.000000,14.651996,0.000000,0.000000,0.000000,0.000000,0.000000,0.000000,7.850000,-6.000000,6.000000,0.153737,0.459396,0.181344,1.000000,15.675869,76.3886,1
1.8750,0.000000,0.000000,16.974114,0.000000,0.000000,14.713933,0.000000,0.000000,0.000000,0.000000,0.000000,0.000000,7.850000,-6.000000,6.000000,0.149145,0.461940,0.176777,1.000000,15.981769,70.9896,1
1.8958,0.000000,0.000000,17.281411,0.000000,0.000000,14.774316,0.000000,0.000000,0.000000,0.000000,0.000000,0.000000,7.850000,-6.000000,6.000000,0.144900,0.464405,0.172089,1.000000,16.288942,118.1605,1
1.9167,0.000000,0.000000,17.589948,0.000000,0.000000,14.833177,0.000000,0.000000,0.000000,0.000000,0.000000,0.000000,7.850000,-6.000000,6.000000,0.140999,0.466790,0.167283,1.000000,16.597357,116.7700,1
1.9375,0.000000,0.000000,17.899692,0.000000,0.000000,14.890551,0.000000,0.000000,0.000000,0.000000,0.000000,0.000000,7.850000,-6.000000,6.000000,0.137437,0.469096,0.162362,1.000000,16.906981,92.9306,1
1.9583,0.000000,0.000000,18.210613,0.000000,0.000000,14.946468,0.000000,0.000000,0.000000,0.000000,0.000000,0.000000,7.850000,-6.000000,6.000000,0.134213,0.471321,0.157330,1.000000,17.217784,101.5246,1
1.9792,0.000000,0.000000,18.522681,0.000000,0.000000,15.000962,0.000000,0.000000,0.000000,0.000000,0.000000,0.000000,7.850000,-6.000000,6.000000,0.131223,0.473465,0.152190,1.000000,17.529737,110.8060,1
2.0000,0.000000,0.000000,18.835868,0.000000,0.000000,15.054062,0.000000,0.000000,0.000000,0.000000,0.000000,0.000000,7.850000,-6.000000,6.000000,0.128378,0.475528,0.146946,1.000000,17.842811,134.3205,1
2.0208,0.000000,0.000000,19.150143,0.000000,0.000000,15.105800,0.000000,0.000000,0.000000,0.000000,0.000000,0.000000,7.850000,-6.000000,6.000000,0.125854,0.477510,0.141602,1.000000,18.156975,59.4687,1
2.0417,0.000000,0.000000,19.465479,0.000000,0.000000,15.156207,0.000000,0.000000,0.000000,0.000000,0.000000,0.000000,7.850000,-6.000000,6.000000,0.123649,0.479410,0.136160,1.000000,18.472203,113.8642,1
2.0625,0.000000,0.000000,19.781850,0.000000,0.000000,15.205313,0.000000,0.000000,0.000000,0.000000,0.000000,0.000000,7.850000,-6.000000,6.000000,0.121761,0.481228,0.130625,1.000000,18.788468,104.1095,1
2.0833,0.000000,0.000000,20.099227,0.000000,0.000000,15.253148,0.000000,0.000000,0.000000,0.000000,0.000000,0.000000,7.850000,-6.000000,6.000000,0.120187,0.482963,0.125000,1.000000,19.105741,138.9000,1
2.1042,0.000000,0.000000,20.417585,0.000000,0.000000,15.299740,0.000000,0.000000,0.000000,0.000000,0.000000,0.000000,7.850000,-6.000000,6.000000,0.118925,0.484615,0.119290,1.000000,19.423998,133.9517,1
2.1250,0.000000,0.000000,20.736899,0.000000,0.000000,15.345118,0.000000,0.000000,0.000000,0.000000,0.000000,0.000000,7.850000,-6.000000,6.000000,0.117973,0.486185,0.113498,1.000000,19.743213,116.5080,1
2.1458,0.000000,0.000000,21.057143,0.000000,0.000000,15.389311,0.000000,0.000000,0.000000,0.000000,0.000000,0.000000,7.850000,-6.000000,6.000000,0.117328,0.487671,0.107628,1.000000,20.063360,127.3236,1
2.1667,0.000000,0.000000,21.378294,0.000000,0.000000,15.432346,0.000000,0.000000,0.000000,0.000000,0.000000,0.000000,7.850000,-6.000000,6.000000,0.116988,0.489074,0.101684,1.000000,20.384415,136.5063,1
2.1875,0.000000,0.000000,21.700327,0.000000,0.000000,15.474251,0.000000,0.000000,0.000000,0.000000,0.000000,0.000000,7.850000,-6.000000,6.000000,0.116950,0.490393,0.095671,1.000000,20.706356,105.3374,1
2.2083,0.000000,0.000000,22.023219,0.000000,0.000000,15.515052,0.000000,0.000000,0.000000,0.000000,0.000000,0.000000,7.850000,-6.000000,6.000000,0.117213,0.491627,0.089592,1.000000,21.029157,98.2299,1
2.2292,0.000000,0.000000,22.346947,0.000000,0.000000,15.554776,0.000000,0.000000,0.000000,0.000000,0.000000,0.000000,7.850000,-6.000000,6.000000,0.117772,0.492778,0.083452,1.000000,21.352797,103.3571,1
2.2500,0.000000,0.000000,22.671490,0.000000,0.000000,15.593448,0.000000,0.000000,0.000000,0.000000,0.000000,0.000000,7.850000,-6.000000,6.000000,0.118627,0.493844,0.077254,1.000000,21.677254,99.9820,1
2.2708,0.000000,0.000000,22.996826,0.000000,0.000000,15.631095,0.000000,0.000000,0.000000,0.000000,0.000000,0.000000,7.850000,-6.000000,6.000000,0.119773,0.494826,0.071004,1.000000,22.002506,81.0180,1
2.2917,0.000000,0.000000,23.322934,0.000000,0.000000,15.667741,0.000000,0.000000,0.000000,0.000000,0.000000,0.000000,7.850000,-6.000000,6.000000,0.121207,0.495722,0.064705,1.000000,22.328531,144.8159,1
2.3125,0.000000,0.000000,23.649792,0.000000,0.000000,15.703410,0.000000,0.000000,0.000000,0.000000,0.000000,0.000000,7.850000,-6.000000,6.000000,0.122925,0.496534,0.058361,1.000000,22.655309,145.6730,1
2.3333,0.000000,0.000000,23.977382,0.000000,0.000000,15.738126,0.000000,0.000000,0.000000,0.000000,0.000000,0.000000,7.850000,-6.000000,6.000000,0.124928,0.497261,0.051978,1.000000,22.982821,135.2365,1
2.3542,0.000000,0.000000,24.305684,0.000000,0.000000,15.771913,0.000000,0.000000,0.000000,0.000000,0.000000,0.000000,7.850000,-6.000000,6.000000,0.127211,0.497902,0.045559,1.000000,23.311046,96.9162,1
2.3750,0.000000,0.000000,24.634678,0.000000,0.000000,15.804794,0.000000,0.000000,0.000000,0.000000,0.000000,0.000000,7.850000,-6.000000,6.000000,0.129774,0.498459,0.039109,1.000000,23.639966,127.0754,1
2.3958,0.000000,0.000000,24.964346,0.000000,0.000000,15.836791,0.000000,0.000000,0.000000,0.000000,0.000000,0.000000,7.850000,-6.000000,6.000000,0.132635,0.498929,0.032632,1.000000,23.969561,114.6045,1
2.4167,0.000000,0.000000,25.294670,0.000000,0.000000,15.867927,0.000000,0.000000,0.000000,0.000000,0.000000,0.000000,7.850000,-6.000000,6.000000,0.136025,0.499315,0.026132,1.000000,24.299814,127.1436,1
2.4375,0.000000,0.000000,25.625631,0.000000,0.000000,15.898222,0.000000,0.000000,0.000000,0.000000,0.000000,0.000000,7.850000,-6.000000,6.000000,0.139689,0.499615,0.019615,1.000000,24.630707,108.3024,1
2.4583,0.000000,0.000000,25.957214,0.000000,0.000000,15.927699,0.000000,0.000000,0.000000,0.000000,0.000000,0.000000,7.850000,-6.000000,6.000000,0.143614,0.499829,0.013084,1.000000,24.962222,109.6048,1
2.4792,0.000000,0.000000,26.289401,0.000000,0.000000,15.956377,0.000000,0.000000,0.000000,0.000000,0.000000,0.000000,7.850000,-6.000000,6.000000,0.147798,0.499957,0.006544,1.000000,25.294343,136.0826,1
2.5000,0.000000,0.000000,26.622176,0.000000,0.000000,15.984278,0.000000,0.000000,0.000000,0.000000,0.000000,0.000000,7.850000,-6.000000,6.000000,0.152247,0.500000,-0.000000,1.000000,25.627054,139.2848,1
2.5208,0.000000,0.000000,26.955522,0.000000,0.000000,16.011421,0.000000,0.000000,0.000000,0.000000,0.000000,0.000000,7.850000,-6.000000,6.000000,0.156957,0.499957,-0.006544,1.000000,25.960337,125.6735,1
2.5417,0.000000,0.000000,27.289424,0.000000,0.000000,16.037825,0.000000,0.000000,0.000000,0.000000,0.000000,0.000000,7.850000,-6.000000,6.000000,0.161926,0.499829,-0.013084,1.000000,26.294179,102.5891,1
2.5625,0.000000,0.000000,27.623868,0.000000,0.000000,16.063509,0.000000,0.000000,0.000000,0.000000,0.000000,0.000000,7.850000,-6.000000,6.000000,0.167150,0.499615,-0.019615,1.000000,26.628563,139.5142,1
2.5833,0.000000,0.000000,27.958838,0.000000,0.000000,16.088492,0.000000,0.000000,0.000000,0.000000,0.000000,0.000000,7.850000,-6.000000,6.000000,0.172626,0.499315,-0.026132,1.000000,26.963474,105.3355,1
2.6042,0.000000,0.000000,28.294320,0.000000,0.000000,16.112793,0.000000,0.000000,0.000000,0.000000,0.000000,0.000000,7.850000,-6.000000,6.000000,0.178349,0.498929,-0.032632,1.000000,27.298899,97.0373,1
2.6250,0.000000,0.000000,28.630299,0.000000,0.000000,16.136428,0.000000,0.000000,0.000000,0.000000,0.000000,0.000000,7.850000,-6.000000,6.000000,0.184316,0.498459,-0.039109,1.000000,27.634823,108.3183,1
2.6458,0.000000,0.000000,28.966763,0.000000,0.000000,16.159414,0.000000,0.000000,0.000000,0.000000,0.000000,0.000000,7.850000,-6.000000,6.000000,0.190524,0.497902,-0.045559,1.000000,27.971232,140.0194,1
2.6667,0.000000,0.000000,29.303698,0.000000,0.000000,16.181770,0.000000,0.000000,0.000000,0.000000,0.000000,0.000000,7.850000,-6.000000,6.000000,0.196968,0.497261,-0.051978,1.000000,28.308114,107.4562,1
2.6875,0.000000,0.000000,29.641091,0.000000,0.000000,16.203511,0.000000,0.000000,0.000000,0.000000,0.000000,0.000000,7.850000,-6.000000,6.000000,0.203646,0.496534,-0.058361,1.000000,28.645455,127.0342,1
2.7083,0.000000,0.000000,29.978930,0.000000,0.000000,16.224654,0.000000,0.000000,0.000000,0.000000,0.000000,0.000000,7.850000,-6.000000,6.000000,0.210552,0.495722,-0.064705,1.000000,28.983242,133.6429,1
2.7292,0.000000,0.000000,30.317201,0.000000,0.000000,16.245214,0.000000,0.000000,0.000000,0.000000,0.000000,0.000000,7.850000,-6.000000,6.000000,0.217683,0.494826,-0.071004,1.000000,29.321463,142.2336,1
2.7500,0.000000,0.000000,30.655894,0.000000,0.000000,16.265207,0.000000,0.000000,0.000000,0.000000,0.000000,0.000000,7.850000,-6.000000,6.000000,0.225034,0.493844,-0.077254,1.000000,29.660106,100.0538,1
2.7708,0.000000,0.000000,30.994997,0.000000,0.000000,16.284647,0.000000,0.000000,0.000000,0.000000,0.000000,0.000000,7.850000,-6.000000,6.000000,0.232602,0.492778,-0.083452,1.000000,29.999160,109.6423,1
2.7917,0.000000,0.000000,31.334497,0.000000,0.000000,16.303550,0.000000,0.000000,0.000000,0.000000,0.000000,0.000000,7.850000,-6.000000,6.000000,0.240381,0.491627,-0.089592,1.000000,30.338613,105.7389,1
2.8125,0.000000,0.000000,31.674385,0.000000,0.000000,16.321929,0.000000,0.000000,0.000000,0.000000,0.000000,0.000000,7.850000,-6.000000,6.000000,0.248368,0.490393,-0.095671,1.000000,30.678454,110.9340,1
2.8333,0.000000,0.000000,32.014649,0.000000,0.000000,16.339798,0.000000,0.000000,0.000000,0.000000,0.000000,0.000000,7.850000,-6.000000,6.000000,0.256558,0.489074,-0.101684,1.000000,31.018672,108.2082,1
2.8542,0.000000,0.000000,32.355280,0.000000,0.000000,16.357172,0.000000,0.000000,0.000000,0.000000,0.000000,0.000000,7.850000,-6.000000,6.000000,0.264946,0.487671,-0.107628,1.000000,31.359257,116.1821,1
2.8750,0.000000,0.000000,32.696266,0.000000,0.000000,16.374063,0.000000,0.000000,0.000000,0.000000,0.000000,0.000000,7.850000,-6.000000,6.000000,0.273528,0.486185,-0.113498,1.000000,31.700198,124.5313,1
2.8958,0.000000,0.000000,33.037599,0.000000,0.000000,16.390485,0.000000,0.000000,0.000000,0.000000,0.000000,0.000000,7.850000,-6.000000,6.000000,0.282299,0.484615,-0.119290,1.000000,32.041486,111.8140,1
2.9167,0.000000,0.000000,33.379267,0.000000,0.000000,16.406449,0.000000,0.000000,0.000000,0.000000,0.000000,0.000000,7.850000,-6.000000,6.000000,0.291253,0.482963,-0.125000,1.000000,32.383110,164.1190,1
2.9375,0.000000,0.000000,33.721263,0.000000,0.000000,16.421969,0.000000,0.000000,0.000000,0.000000,0.000000,0.000000,7.850000,-6.000000,6.000000,0.300387,0.481228,-0.130625,1.000000,32.725062,139.0576,1
2.9583,0.000000,0.000000,34.063577,0.000000,0.000000,16.437056,0.000000,0.000000,0.000000,0.000000,0.000000,0.000000,7.850000,-6.000000,6.000000,0.309695,0.479410,-0.136160,1.000000,33.067333,135.9711,1
2.9792,0.000000,0.000000,34.406199,0.000000,0.000000,16.451721,0.000000,0.000000,0.000000,0.000000,0.000000,0.000000,7.850000,-6.000000,6.000000,0.319172,0.477510,-0.141602,1.000000,33.409912,169.8925,1
3.0000,0.000000,0.000000,34.749122,0.000000,0.000000,16.465978,0.000000,0.000000,0.000000,0.000000,0.000000,0.000000,7.850000,-6.000000,6.000000,0.328813,0.475528,-0.146946,1.000000,33.752792,143.5938,1
3.0208,0.000000,0.000000,35.092338,0.000000,0.000000,16.479835,0.000000,0.000000,0.000000,0.000000,0.000000,0.000000,7.850000,-6.000000,6.000000,0.338612,0.473465,-0.152190,1.000000,34.095965,131.8355,1
3.0417,0.000000,0.000000,35.435836,0.000000,0.000000,16.493305,0.000000,0.000000,0.000000,0.000000,0.000000,0.000000,7.850000,-6.000000,6.000000,0.348565,0.471321,-0.157330,1.000000,34.439421,128.9217,1
3.0625,0.000000,0.000000,35.779611,0.000000,0.000000,16.506398,0.000000,0.000000,0.000000,0.000000,0.000000,0.000000,7.850000,-6.000000,6.000000,0.358666,0.469096,-0.162362,1.000000,34.783154,145.2229,1
3.0833,0.000000,0.000000,36.123654,0.000000,0.000000,16.519124,0.000000,0.000000,0.000000,0.000000,0.000000,0.000000,7.850000,-6.000000,6.000000,0.368909,0.466790,-0.167283,1.000000,35.127154,131.1831,1
3.1042,0.000000,0.000000,36.467958,0.000000,0.000000,16.531493,0.000000,0.000000,0.000000,0.000000,0.000000,0.000000,7.850000,-6.000000,6.000000,0.379290,0.464405,-0.172089,1.000000,35.471416,164.0790,1
3.1250,0.000000,0.000000,36.812515,0.000000,0.000000,16.543515,0.000000,0.000000,0.000000,0.000000,0.000000,0.000000,7.850000,-6.000000,6.000000,0.389803,0.461940,-0.176777,1.000000,35.815930,139.2765,1
3.1458,0.000000,0.000000,37.157318,0.000000,0.000000,16.555199,0.000000,0.000000,0.000000,0.000000,0.000000,0.000000,7.850000,-6.000000,6.000000,0.400442,0.459396,-0.181344,1.000000,36.160691,159.0192,1
3.1667,0.000000,0.000000,37.502360,0.000000,0.000000,16.566555,0.000000,0.000000,0.000000,0.000000,0.000000,0.000000,7.850000,-6.000000,6.000000,0.411200,0.456773,-0.185786,1.000000,36.505691,141.2160,1
3.1875,0.000000,0.000000,37.847635,0.000000,0.000000,16.577591,0.000000,0.000000,0.000000,0.000000,0.000000,0.000000,7.850000,-6.000000,6.000000,0.421835,0.454072,-0.190101,1.000000,36.850923,152.5378,1
3.2083,0.000000,0.000000,38.193137,0.000000,0.000000,16.588317,0.000000,0.000000,0.000000,0.000000,0.000000,0.000000,7.850000,-6.000000,6.000000,0.432518,0.451293,-0.194286,1.000000,37.196382,139.3516,1
3.2292,0.000000,0.000000,38.538857,0.000000,0.000000,16.598741,0.000000,0.000000,0.000000,0.000000,0.000000,0.000000,7.850000,-6.000000,6.000000,0.443308,0.448436,-0.198338,1.000000,37.542060,149.3130,1
3.2500,0.000000,0.000000,38.884792,0.000000,0.000000,16.608872,0.000000,0.000000,0.000000,0.000000,0.000000,0.000000,7.850000,-6.000000,6.000000,0.454197,0.445503,-0.202254,1.000000,37.887951,136.4913,1
3.2708,0.000000,0.000000,39.230933,0.000000,0.000000,16.618717,0.000000,0.000000,0.000000,0.000000,0.000000,0.000000,7.850000,-6.000000,6.000000,0.465180,0.442494,-0.206032,1.000000,38.234049,137.2869,1
3.2917,0.000000,0.000000,39.577277,0.000000,0.000000,16.628284,0.000000,0.000000,0.000000,0.000000,0.000000,0.000000,7.850000,-6.000000,6.000000,0.476251,0.439409,-0.209668,1.000000,38.580349,140.6469,1
3.3125,0.000000,0.000000,39.923816,0.000000,0.000000,16.637581,0.000000,0.000000,0.000000,0.000000,0.000000,0.000000,7.850000,-6.000000,6.000000,0.487405,0.436248,-0.213160,1.000000,38.926844,137.8734,1
3.3333,0.000000,0.000000,40.270545,0.000000,0.000000,16.646615,0.000000,0.000000,0.000000,0.000000,0.000000,0.000000,7.850000,-6.000000,6.000000,0.498635,0.433013,-0.216506,1.000000,39.273529,144.2075,1
3.3542,0.000000,0.000000,40.617460,0.000000,0.000000,16.655395,0.000000,0.000000,0.000000,0.000000,0.000000,0.000000,7.850000,-6.000000,6.000000,0.509935,0.429703,-0.219704,1.000000,39.620399,136.6019,1
3.3750,0.000000,0.000000,40.964554,0.000000,0.000000,16.663926,0.000000,0.000000,0.000000,0.000000,0.000000,0.000000,7.850000,-6.000000,6.000000,0.521300,0.426320,-0.222752,1.000000,39.967449,136.9524,1
3.3958,0.000000,0.000000,41.311824,0.000000,0.000000,16.672216,0.000000,0.000000,0.000000,0.000000,0.000000,0.000000,7.850000,-6.000000,6.000000,0.532723,0.422864,-0.225646,1.000000,40.314673,140.5644,1
3.4167,0.000000,0.000000,41.659263,0.000000,0.000000,16.680271,0.000000,0.000000,0.000000,0.000000,0.000000,0.000000,7.850000,-6.000000,6.000000,0.544200,0.419335,-0.228386,1.000000,40.662066,143.5859,1
3.4375,0.000000,0.000000,42.006866,0.000000,0.000000,16.688099,0.000000,0.000000,0.000000,0.000000,0.000000,0.000000,7.850000,-6.000000,6.000000,0.555722,0.415735,-0.230970,1.000000,41.009624,139.4367,1
3.4583,0.000000,0.000000,42.354631,0.000000,0.000000,16.695704,0.000000,0.000000,0.000000,0.000000,0.000000,0.000000,7.850000,-6.000000,6.000000,0.567284,0.412063,-0.233395,1.000000,41.357342,139.7898,1
3.4792,0.000000,0.000000,42.702550,0.000000,0.000000,16.703094,0.000000,0.000000,0.000000,0.000000,0.000000,0.000000,7.850000,-6.000000,6.000000,0.578882,0.408321,-0.235660,1.000000,41.705215,148.4249,1
3.5000,0.000000,0.000000,43.050622,0.000000,0.000000,16.710275,0.000000,0.000000,0.000000,0.000000,0.000000,0.000000,7.850000,-6.000000,6.000000,0.590507,0.404508,-0.237764,1.000000,42.053239,166.1372,1
3.5208,0.000000,0.000000,43.398840,0.000000,0.000000,16.717252,0.000000,0.000000,0.000000,0.000000,0.000000,0.000000,7.850000,-6.000000,6.000000,0.602169,0.400627,-0.239705,1.000000,42.401410,151.1879,1
3.5417,0.000000,0.000000,43.747201,0.000000,0.000000,16.724032,0.000000,0.000000,0.000000,0.000000,0.000000,0.000000,7.850000,-6.000000,6.000000,0.613856,0.396677,-0.241481,1.000000,42.749724,167.1956,1
3.5625,0.000000,0.000000,44.095701,0.000000,0.000000,16.730618,0.000000,0.000000,0.000000,0.000000,0.000000,0.000000,7.850000,-6.000000,6.000000,0.625552,0.392658,-0.243092,1.000000,43.098175,156.1320,1
3.5833,0.000000,0.000000,44.444336,0.000000,0.000000,16.737018,0.000000,0.000000,0.000000,0.000000,0.000000,0.000000,7.850000,-6.000000,6.000000,0.637254,0.388573,-0.244537,1.000000,43.446762,153.8942,1
3.6042,0.000000,0.000000,44.793102,0.000000,0.000000,16.743236,0.000000,0.000000,0.000000,0.000000,0.000000,0.000000,7.850000,-6.000000,6.000000,0.648954,0.384421,-0.245814,1.000000,43.795479,140.8572,1
3.6250,0.000000,0.000000,45.141995,0.000000,0.000000,16.749278,0.000000,0.000000,0.000000,0.000000,0.000000,0.000000,7.850000,-6.000000,6.000000,0.660646,0.380203,-0.246922,1.000000,44.144323,140.9645,1
3.6458,0.000000,0.000000,45.491012,0.000000,0.000000,16.755147,0.000000,0.000000,0.000000,0.000000,0.000000,0.000000,7.850000,-6.000000,6.000000,0.672324,0.375920,-0.247861,1.000000,44.493291,131.6321,1
3.6667,0.000000,0.000000,45.840149,0.000000,0.000000,16.760850,0.000000,0.000000,0.000000,0.000000,0.000000,0.000000,7.850000,-6.000000,6.000000,0.683985,0.371572,-0.248630,1.000000,44.842378,137.3992,1
3.6875,0.000000,0.000000,46.189403,0.000000,0.000000,16.766391,0.000000,0.000000,0.000000,0.000000,0.000000,0.000000,7.850000,-6.000000,6.000000,0.695619,0.367161,-0.249229,1.000000,45.191582,123.0335,1
3.7083,0.000000,0.000000,46.538770,0.000000,0.000000,16.771774,0.000000,0.000000,0.000000,0.000000,0.000000,0.000000,7.850000,-6.000000,6.000000,0.707222,0.362687,-0.249657,1.000000,45.540899,148.4885,1
3.7292,0.000000,0.000000,46.888248,0.000000,0.000000,16.777004,0.000000,0.000000,0.000000,0.000000,0.000000,0.000000,7.850000,-6.000000,6.000000,0.718787,0.358151,-0.249914,1.000000,45.890326,141.9425,1
3.7500,0.000000,0.000000,47.237833,0.000000,0.000000,16.782085,0.000000,0.000000,0.000000,0.000000,0.000000,0.000000,7.850000,-6.000000,6.000000,0.730309,0.353553,-0.250000,1.000000,46.239860,138.0174,1
3.7708,0.000000,0.000000,47.587521,0.000000,0.000000,16.787021,0.000000,0.000000,0.000000,0.000000,0.000000,0.000000,7.850000,-6.000000,6.000000,0.741783,0.348895,-0.249914,1.000000,46.589498,136.2755,1
3.7917,0.000000,0.000000,47.937311,0.000000,0.000000,16.791817,0.000000,0.000000,0.000000,0.000000,0.000000,0.000000,7.850000,-6.000000,6.000000,0.753202,0.344177,-0.249657,1.000000,46.939237,139.8020,1
3.8125,0.000000,0.000000,48.287199,0.000000,0.000000,16.796476,0.000000,0.000000,0.000000,0.000000,0.000000,0.000000,7.850000,-6.000000,6.000000,0.764561,0.339400,-0.249229,1.000000,47.289074,125.6161,1
3.8333,0.000000,0.000000,48.637183,0.000000,0.000000,16.801003,0.000000,0.000000,0.000000,0.000000,0.000000,0.000000,7.850000,-6.000000,6.000000,0.775855,0.334565,-0.248630,1.000000,47.639006,128.0847,1
3.8542,0.000000,0.000000,48.987259,0.000000,0.000000,16.805400,0.000000,0.000000,0.000000,0.000000,0.000000,0.000000,7.850000,-6.000000,6.000000,0.787077,0.329673,-0.247861,1.000000,47.989031,130.0006,1
3.8750,0.000000,0.000000,49.337425,0.000000,0.000000,16.809672,0.000000,0.000000,0.000000,0.000000,0.000000,0.000000,7.850000,-6.000000,6.000000,0.798222,0.324724,-0.246922,1.000000,48.339146,158.1089,1
3.8958,0.000000,0.000000,49.687678,0.000000,0.000000,16.813822,0.000000,0.000000,0.000000,0.000000,0.000000,0.000000,7.850000,-6.000000,6.000000,0.809284,0.319720,-0.245814,1.000000,48.689349,135.1893,1
3.9167,0.000000,0.000000,50.038017,0.000000,0.000000,16.817854,0.000000,0.000000,0.000000,0.000000,0.000000,0.000000,7.850000,-6.000000,6.000000,0.820259,0.314660,-0.244537,1.000000,49.039636,144.9182,1
3.9375,0.000000,0.000000,50.388438,0.000000,0.000000,16.821771,0.000000,0.000000,0.000000,0.000000,0.000000,0.000000,7.850000,-6.000000,6.000000,0.831141,0.309547,-0.243092,1.000000,49.390006,143.0895,1
3.9583,0.000000,0.000000,50.738939,0.000000,0.000000,16.825576,0.000000,0.000000,0.000000,0.000000,0.000000,0.000000,7.850000,-6.000000,6.000000,0.841923,0.304381,-0.241481,1.000000,49.740457,133.1289,1
3.9792,0.000000,0.000000,51.089519,0.000000,0.000000,16.829272,0.000000,0.000000,0.000000,0.000000,0.000000,0.000000,7.850000,-6.000000,6.000000,0.852603,0.299162,-0.239705,1.000000,50.090985,129.7731,1
4.0000,0.000000,0.000000,51.440173,0.000000,0.000000,16.832863,0.000000,0.000000,0.000000,0.000000,0.000000,0.000000,7.850000,-6.000000,6.000000,0.863173,0.293893,-0.237764,1.000000,50.441590,132.2930,1
4.0208,0.000000,0.000000,51.790902,0.000000,0.000000,16.836351,0.000000,0.000000,0.000000,0.000000,0.000000,0.000000,7.850000,-6.000000,6.000000,0.873629,0.288573,-0.235660,1.000000,50.792268,135.1707,1
4.0417,0.000000,0.000000,52.141702,0.000000,0.000000,16.839740,0.000000,0.000000,0.000000,0.000000,0.000000,0.000000,7.850000,-6.000000,6.000000,0.883966,0.283203,-0.233395,1.000000,51.143018,207.6907,1
4.0625,0.000000,0.000000,52.492571,0.000000,0.000000,16.843032,0.000000,0.000000,0.000000,0.000000,0.000000,0.000000,7.850000,-6.000000,6.000000,0.894180,0.277785,-0.230970,1.000000,51.493838,144.4988,1
4.0833,0.000000,0.000000,52.843508,0.000000,0.000000,16.846230,0.000000,0.000000,0.000000,0.000000,0.000000,0.000000,7.850000,-6.000000,6.000000,0.904266,0.272320,-0.228386,1.000000,51.844726,148.2234,1
4.1042,0.000000,0.000000,53.194510,0.000000,0.000000,16.849336,0.000000,0.000000,0.000000,0.000000,0.000000,0.000000,7.850000,-6.000000,6.000000,0.914216,0.266807,-0.225646,1.000000,52.195679,134.8915,1
4.1250,0.000000,0.000000,53.545575,0.000000,0.000000,16.852354,0.000000,0.000000,0.000000,0.000000,0.000000,0.000000,7.850000,-6.000000,6.000000,0.924029,0.261249,-0.222752,1.000000,52.546697,138.5198,1
4.1458,0.000000,0.000000,53.896703,0.000000,0.000000,16.855285,0.000000,0.000000,0.000000,0.000000,0.000000,0.000000,7.850000,-6.000000,6.000000,0.933652,0.255647,-0.219704,1.000000,52.897777,153.2505,1
4.1667,0.000000,0.000000,54.247890,0.000000,0.000000,16.858133,0.000000,0.000000,0.000000,0.000000,0.000000,0.000000,7.850000,-6.000000,6.000000,0.943057,0.250000,-0.216506,1.000000,53.248917,138.1876,1
4.1875,0.000000,0.000000,54.599136,0.000000,0.000000,16.860899,0.000000,0.000000,0.000000,0.000000,0.000000,0.000000,7.850000,-6.000000,6.000000,0.952313,0.244311,-0.213160,1.000000,53.600117,130.6486,1
4.2083,0.000000,0.000000,54.950439,0.000000,0.000000,16.863586,0.000000,0.000000,0.000000,0.000000,0.000000,0.000000,7.850000,-6.000000,6.000000,0.961411,0.238579,-0.209668,1.000000,53.951374,120.7790,1
4.2292,0.000000,0.000000,55.301796,0.000000,0.000000,16.866196,0.000000,0.000000,0.000000,0.000000,0.000000,0.000000,7.850000,-6.000000,6.000000,0.970347,0.232807,-0.206032,1.000000,54.302686,116.6346,1
4.2500,0.000000,0.000000,55.653207,0.000000,0.000000,16.868731,0.000000,0.000000,0.000000,0.000000,0.000000,0.000000,7.850000,-6.000000,6.000000,0.979120,0.226995,-0.202254,1.000000,54.654053,106.1256,1
4.2708,0.000000,0.000000,56.004670,0.000000,0.000000,16.871194,0.000000,0.000000,0.000000,0.000000,0.000000,0.000000,7.850000,-6.000000,6.000000,0.987725,0.221144,-0.198338,1.000000,55.005472,121.3989,1
4.2917,0.000000,0.000000,56.356183,0.000000,0.000000,16.873587,0.000000,0.000000,0.000000,0.000000,0.000000,0.000000,7.850000,-6.000000,6.000000,0.996157,0.215256,-0.194286,1.000000,55.356942,129.1006,1
4.3125,0.000000,0.000000,56.707745,0.000000,0.000000,16.875911,0.000000,0.000000,0.000000,0.000000,0.000000,0.000000,7.850000,-6.000000,6.000000,1.004412,0.209330,-0.190101,1.000000,55.708463,128.5999,1
4.3333,0.000000,0.000000,57.059355,0.000000,0.000000,16.878168,0.000000,0.000000,0.000000,0.000000,0.000000,0.000000,7.850000,-6.000000,6.000000,1.012486,0.203368,-0.185786,1.000000,56.060032,122.1015,1
4.3542,0.000000,0.000000,57.411011,0.000000,0.000000,16.880361,0.000000,0.000000,0.000000,0.000000,0.000000,0.000000,7.850000,-6.000000,6.000000,1.020378,0.197372,-0.181344,1.000000,56.411648,113.2522,1
4.3750,0.000000,0.000000,57.762712,0.000000,0.000000,16.882491,0.000000,0.000000,0.000000,0.000000,0.000000,0.000000,7.850000,-6.000000,6.000000,1.028086,0.191342,-0.176777,1.000000,56.763310,124.9683,1
4.3958,0.000000,0.000000,58.114456,0.000000,0.000000,16.884560,0.000000,0.000000,0.000000,0.000000,0.000000,0.000000,7.850000,-6.000000,6.000000,1.035601,0.185279,-0.172089,1.000000,57.115016,122.5386,1
4.4167,0.000000,0.000000,58.466243,0.000000,0.000000,16.886570,0.000000,0.000000,0.000000,0.000000,0.000000,0.000000,7.850000,-6.000000,6.000000,1.042922,0.179184,-0.167283,1.000000,57.466766,113.5879,1
4.4375,0.000000,0.000000,58.818071,0.000000,0.000000,16.888522,0.000000,0.000000,0.000000,0.000000,0.000000,0.000000,7.850000,-6.000000,6.000000,1.050050,0.173059,-0.162362,1.000000,57.818558,117.1677,1
4.4583,0.000000,0.000000,59.169939,0.000000,0.000000,16.890418,0.000000,0.000000,0.000000,0.000000,0.000000,0.000000,7.850000,-6.000000,6.000000,1.056977,0.166903,-0.157330,1.000000,58.170392,132.8988,1
4.4792,0.000000,0.000000,59.521846,0.000000,0.000000,16.892260,0.000000,0.000000,0.000000,0.000000,0.000000,0.000000,7.850000,-6.000000,6.000000,1.063702,0.160720,-0.152190,1.000000,58.522265,173.6693,1
4.5000,0.000000,0.000000,59.873791,0.000000,0.000000,16.894049,0.000000,0.000000,0.000000,0.000000,0.000000,0.000000,7.850000,-6.000000,6.000000,1.070222,0.154508,-0.146946,1.000000,58.874177,146.5516,1
4.5208,0.000000,0.000000,60.225772,0.000000,0.000000,16.895787,0.000000,0.000000,0.000000,0.000000,0.000000,0.000000,7.850000,-6.000000,6.000000,1.076535,0.148271,-0.141602,1.000000,59.226127,137.6786,1
4.5417,0.000000,0.000000,60.577789,0.000000,0.000000,16.897475,0.000000,0.000000,0.000000,0.000000,0.000000,0.000000,7.850000,-6.000000,6.000000,1.082638,0.142008,-0.136160,1.000000,59.578114,140.5628,1
4.5625,0.000000,0.000000,60.929840,0.000000,0.000000,16.899115,0.000000,0.000000,0.000000,0.000000,0.000000,0.000000,7.850000,-6.000000,6.000000,1.088529,0.135720,-0.130625,1.000000,59.930136,162.0440,1
4.5833,0.000000,0.000000,61.281925,0.000000,0.000000,16.900708,0.000000,0.000000,0.000000,0.000000,0.000000,0.000000,7.850000,-6.000000,6.000000,1.094206,0.129410,-0.125000,1.000000,60.282193,173.9357,1
4.6042,0.000000,0.000000,61.634042,0.000000,0.000000,16.902255,0.000000,0.000000,0.000000,0.000000,0.000000,0.000000,7.850000,-6.000000,6.000000,1.099678,0.123077,-0.119290,1.000000,60.634285,159.8129,1
4.6250,0.000000,0.000000,61.986192,0.000000,0.000000,16.903758,0.000000,0.000000,0.000000,0.000000,0.000000,0.000000,7.850000,-6.000000,6.000000,1.104949,0.116723,-0.113498,1.000000,60.986409,147.4974,1
4.6458,0.000000,0.000000,62.338371,0.000000,0.000000,16.905217,0.000000,0.000000,0.000000,0.000000,0.000000,0.000000,7.850000,-6.000000,6.000000,1.109999,0.110349,-0.107628,1.000000,61.338565,168.4134,1
4.6667,0.000000,0.000000,62.690581,0.000000,0.000000,16.906635,0.000000,0.000000,0.000000,0.000000,0.000000,0.000000,7.850000,-6.000000,6.000000,1.114828,0.103956,-0.101684,1.000000,61.690753,148.7978,1
4.6875,0.000000,0.000000,63.042820,0.000000,0.000000,16.908012,0.000000,0.000000,0.000000,0.000000,0.000000,0.000000,7.850000,-6.000000,6.000000,1.119430,0.097545,-0.095671,1.000000,62.042971,143.7504,1
4.7083,0.000000,0.000000,63.395087,0.000000,0.000000,16.909350,0.000000,0.000000,0.000000,0.000000,0.000000,0.000000,7.850000,-6.000000,6.000000,1.123812,0.091118,-0.089592,1.000000,62.395218,141.2923,1
4.7292,0.000000,0.000000,63.747382,0.000000,0.000000,16.910649,0.000000,0.000000,0.000000,0.000000,0.000000,0.000000,7.850000,-6.000000,6.000000,1.127966,0.084675,-0.083452,1.000000,62.747494,141.8779,1
4.7500,0.000000,0.000000,64.099703,0.000000,0.000000,16.911911,0.000000,0.000000,0.000000,0.000000,0.000000,0.000000,7.850000,-6.000000,6.000000,1.131891,0.078217,-0.077254,1.000000,63.099798,144.3629,1
4.7708,0.000000,0.000000,64.452049,0.000000,0.000000,16.913137,0.000000,0.000000,0.000000,0.000000,0.000000,0.000000,7.850000,-6.000000,6.000000,1.135587,0.071746,-0.071004,1.000000,63.452130,120.7705,1
4.7917,0.000000,0.000000,64.804421,0.000000,0.000000,16.914327,0.000000,0.000000,0.000000,0.000000,0.000000,0.000000,7.850000,-6.000000,6.000000,1.139054,0.065263,-0.064705,1.000000,63.804488,139.8787,1
4.8125,0.000000,0.000000,65.156818,0.000000,0.000000,16.915484,0.000000,0.000000,0.000000,0.000000,0.000000,0.000000,7.850000,-6.000000,6.000000,1.142288,0.058769,-0.058361,1.000000,64.156871,109.9315,1
4.8333,0.000000,0.000000,65.509238,0.000000,0.000000,16.916607,0.000000,0.000000,0.000000,0.000000,0.000000,0.000000,7.850000,-6.000000,6.000000,1.145295,0.052264,-0.051978,1.000000,64.509280,126.9357,1
4.8542,0.000000,0.000000,65.861681,0.000000,0.000000,16.917698,0.000000,0.000000,0.000000,0.000000,0.000000,0.000000,7.850000,-6.000000,6.000000,1.148068,0.045751,-0.045559,1.000000,64.861713,115.7455,1
4.8750,0.000000,0.000000,66.214146,0.000000,0.000000,16.918758,0.000000,0.000000,0.000000,0.000000,0.000000,0.000000,7.850000,-6.000000,6.000000,1.150608,0.039230,-0.039109,1.000000,65.214170,126.5926,1
4.8958,0.000000,0.000000,66.566633,0.000000,0.000000,16.919787,0.000000,0.000000,0.000000,0.000000,0.000000,0.000000,7.850000,-6.000000,6.000000,1.152916,0.032702,-0.032632,1.000000,65.566649,116.3709,1
4.9167,0.000000,0.000000,66.919141,0.000000,0.000000,16.920787,0.000000,0.000000,0.000000,0.000000,0.000000,0.000000,7.850000,-6.000000,6.000000,1.154991,0.026168,-0.026132,1.000000,65.919152,118.8095,1
4.9375,0.000000,0.000000,67.271670,0.000000,0.000000,16.921758,0.000000,0.000000,0.000000,0.000000,0.000000,0.000000,7.850000,-6.000000,6.000000,1.156833,0.019630,-0.019615,1.000000,66.271676,132.5769,1
4.9583,0.000000,0.000000,67.624218,0.000000,0.000000,16.922701,0.000000,0.000000,0.000000,0.000000,0.000000,0.000000,7.850000,-6.000000,6.000000,1.158442,0.013088,-0.013084,1.000000,66.624221,115.9289,1
4.9792,0.000000,0.000000,67.976786,0.000000,0.000000,16.923618,0.000000,0.000000,0.000000,0.000000,0.000000,0.000000,7.850000,-6.000000,6.000000,1.159818,0.006545,-0.006544,1.000000,66.976787,117.7690,1
5.0000,0.000000,0.000000,68.329373,0.000000,0.000000,16.924507,0.000000,0.000000,0.000000,0.000000,0.000000,0.000000,7.850000,-6.000000,6.000000,1.160962,0.000000,-0.000000,1.000000,67.329373,125.7253,1
5.0208,0.000000,0.000000,68.681977,0.000000,0.000000,16.925372,0.000000,0.000000,0.000000,0.000000,0.000000,0.000000,7.850000,-6.000000,6.000000,1.161874,-0.006545,0.006544,1.000000,67.681978,107.4197,1
5.0417,0.000000,0.000000,69.034600,0.000000,0.000000,16.926211,0.000000,0.000000,0.000000,0.000000,0.000000,0.000000,7.850000,-6.000000,6.000000,1.162552,-0.013088,0.013084,1.000000,68.034602,127.5158,1
5.0625,0.000000,0.000000,69.387239,0.000000,0.000000,16.927027,0.000000,0.000000,0.000000,0.000000,0.000000,0.000000,7.850000,-6.000000,6.000000,1.163004,-0.019630,0.019615,1.000000,68.387245,133.3783,1
5.0833,0.000000,0.000000,69.739896,0.000000,0.000000,16.927819,0.000000,0.000000,0.000000,0.000000,0.000000,0.000000,7.850000,-6.000000,6.000000,1.163224,-0.026168,0.026132,1.000000,68.739906,119.3409,1
5.1042,0.000000,0.000000,70.092568,0.000000,0.000000,16.928588,0.000000,0.000000,0.000000,0.000000,0.000000,0.000000,7.850000,-6.000000,6.000000,1.163215,-0.032702,0.032632,1.000000,69.092584,122.6192,1
5.1250,0.000000,0.000000,70.445257,0.000000,0.000000,16.929335,0.000000,0.000000,0.000000,0.000000,0.000000,0.000000,7.850000,-6.000000,6.000000,1.162978,-0.039230,0.039109,1.000000,69.445279,142.2632,1
5.1458,0.000000,0.000000,70.797960,0.000000,0.000000,16.930061,0.000000,0.000000,0.000000,0.000000,0.000000,0.000000,7.850000,-6.000000,6.000000,1.162513,-0.045751,0.045559,1.000000,69.797990,134.6638,1
5.1667,0.000000,0.000000,71.150679,0.000000,0.000000,16.930766,0.000000,0.000000,0.000000,0.000000,0.000000,0.000000,7.850000,-6.000000,6.000000,1.161824,-0.052264,0.051978,1.000000,70.150717,138.5972,1
5.1875,0.000000,0.000000,71.503412,0.000000,0.000000,16.931450,0.000000,0.000000,0.000000,0.000000,0.000000,0.000000,7.850000,-6.000000,6.000000,1.160910,-0.058769,0.058361,1.000000,70.503460,129.7498,1
5.2083,0.000000,0.000000,71.856158,0.000000,0.000000,16.932115,0.000000,0.000000,0.000000,0.000000,0.000000,0.000000,7.850000,-6.000000,6.000000,1.159774,-0.065263,0.064705,1.000000,70.856218,128.8290,1
5.2292,0.000000,0.000000,72.208919,0.000000,0.000000,16.932761,0.000000,0.000000,0.000000,0.000000,0.000000,0.000000,7.850000,-6.000000,6.000000,1.158417,-0.071746,0.071004,1.000000,71.208990,135.6444,1
5.2500,0.000000,0.000000,72.561693,0.000000,0.000000,16.933388,0.000000,0.000000,0.000000,0.000000,0.000000,0.000000,7.850000,-6.000000,6.000000,1.156840,-0.078217,0.077254,1.000000,71.561777,133.9748,1
5.2708,0.000000,0.000000,72.914479,0.000000,0.000000,16.933998,0.000000,0.000000,0.000000,0.000000,0.000000,0.000000,7.850000,-6.000000,6.000000,1.155046,-0.084675,0.083452,1.000000,71.914578,156.8255,1
5.2917,0.000000,0.000000,73.267278,0.000000,0.000000,16.934590,0.000000,0.000000,0.000000,0.000000,0.000000,0.000000,7.850000,-6.000000,6.000000,1.153072,-0.091118,0.089592,1.000000,72.267391,161.8316,1
5.3125,0.000000,0.000000,73.620089,0.000000,0.000000,16.935164,0.000000,0.000000,0.000000,0.000000,0.000000,0.000000,7.850000,-6.000000,6.000000,1.150946,-0.097545,0.095671,1.000000,72.620218,165.8363,1
5.3333,0.000000,0.000000,73.972912,0.000000,0.000000,16.935723,0.000000,0.000000,0.000000,0.000000,0.000000,0.000000,7.850000,-6.000000,6.000000,1.148607,-0.103956,0.101684,1.000000,72.973057,170.7053,1
5.3542,0.000000,0.000000,74.325747,0.000000,0.000000,16.936265,0.000000,0.000000,0.000000,0.000000,0.000000,0.000000,7.850000,-6.000000,6.000000,1.146058,-0.110349,0.107628,1.000000,73.325909,173.2314,1
5.3750,0.000000,0.000000,74.678592,0.000000,0.000000,16.936792,0.000000,0.000000,0.000000,0.000000,0.000000,0.000000,7.850000,-6.000000,6.000000,1.143300,-0.116723,0.113498,1.000000,73.678772,145.4256,1
5.3958,0.000000,0.000000,75.031448,0.000000,0.000000,16.937303,0.000000,0.000000,0.000000,0.000000,0.000000,0.000000,7.850000,-6.000000,6.000000,1.140338,-0.123077,0.119290,1.000000,74.031647,155.1912,1
5.4167,0.000000,0.000000,75.384315,0.000000,0.000000,16.937800,0.000000,0.000000,0.000000,0.000000,0.000000,0.000000,7.850000,-6.000000,6.000000,1.137172,-0.129410,0.125000,1.000000,74.384533,145.5953,1
5.4375,0.000000,0.000000,75.737192,0.000000,0.000000,16.938283,0.000000,0.000000,0.000000,0.000000,0.000000,0.000000,7.850000,-6.000000,6.000000,1.133806,-0.135720,0.130625,1.000000,74.737429,158.4938,1
5.4583,0.000000,0.000000,76.090079,0.000000,0.000000,16.938751,0.000000,0.000000,0.000000,0.000000,0.000000,0.000000,7.850000,-6.000000,6.000000,1.130243,-0.142008,0.136160,1.000000,75.090337,142.7794,1
5.4792,0.000000,0.000000,76.442975,0.000000,0.000000,16.939207,0.000000,0.000000,0.000000,0.000000,0.000000,0.000000,7.850000,-6.000000,6.000000,1.126485,-0.148271,0.141602,1.000000,75.443254,173.8636,1
5.5000,0.000000,0.000000,76.795881,0.000000,0.000000,16.939649,0.000000,0.000000,0.000000,0.000000,0.000000,0.000000,7.850000,-6.000000,6.000000,1.122535,-0.154508,0.146946,1.000000,75.796181,149.4408,1
5.5208,0.000000,0.000000,77.148796,0.000000,0.000000,16.940078,0.000000,0.000000,0.000000,0.000000,0.000000,0.000000,7.850000,-6.000000,6.000000,1.118397,-0.160720,0.152190,1.000000,76.149117,161.4907,1
5.5417,0.000000,0.000000,77.501719,0.000000,0.000000,16.940496,0.000000,0.000000,0.000000,0.000000,0.000000,0.000000,7.850000,-6.000000,6.000000,1.114074,-0.166903,0.157330,1.000000,76.502063,157.2747,1
5.5625,0.000000,0.000000,77.854651,0.000000,0.000000,16.940901,0.000000,0.000000,0.000000,0.000000,0.000000,0.000000,7.850000,-6.000000,6.000000,1.109569,-0.173059,0.162362,1.000000,76.855018,176.1675,1
5.5833,0.000000,0.000000,78.207592,0.000000,0.000000,16.941294,0.000000,0.000000,0.000000,0.000000,0.000000,0.000000,7.850000,-6.000000,6.000000,1.104891,-0.179184,0.167283,1.000000,77.207981,167.3746,1
5.6042,0.000000,0.000000,78.560540,0.000000,0.000000,16.941676,0.000000,0.000000,0.000000,0.000000,0.000000,0.000000,7.850000,-6.000000,6.000000,1.100037,-0.185279,0.172089,1.000000,77.560952,156.9343,1
5.6250,0.000000,0.000000,78.913496,0.000000,0.000000,16.942048,0.000000,0.000000,0.000000,0.000000,0.000000,0.000000,7.850000,-6.000000,6.000000,1.095011,-0.191342,0.176777,1.000000,77.913932,152.8790,1
5.6458,0.000000,0.000000,79.266460,0.000000,0.000000,16.942408,0.000000,0.000000,0.000000,0.000000,0.000000,0.000000,7.850000,-6.000000,6.000000,1.089817,-0.197372,0.181344,1.000000,78.266919,147.3267,1
5.6667,0.000000,0.000000,79.619431,0.000000,0.000000,16.942758,0.000000,0.000000,0.000000,0.000000,0.000000,0.000000,7.850000,-6.000000,6.000000,1.084459,-0.203368,0.185786,1.000000,78.619914,147.4493,1
5.6875,0.000000,0.000000,79.972410,0.000000,0.000000,16.943099,0.000000,0.000000,0.000000,0.000000,0.000000,0.000000,7.850000,-6.000000,6.000000,1.078939,-0.209330,0.190101,1.000000,78.972916,192.2359,1
5.7083,0.000000,0.000000,80.325395,0.000000,0.000000,16.943429,0.000000,0.000000,0.000000,0.000000,0.000000,0.000000,7.850000,-6.000000,6.000000,1.073262,-0.215256,0.194286,1.000000,79.325925,157.4214,1
5.7292,0.000000,0.000000,80.678387,0.000000,0.000000,16.943750,0.000000,0.000000,0.000000,0.000000,0.000000,0.000000,7.850000,-6.000000,6.000000,1.067431,-0.221144,0.198338,1.000000,79.678941,146.8320,1
5.7500,0.000000,0.000000,81.031386,0.000000,0.000000,16.944061,0.000000,0.000000,0.000000,0.000000,0.000000,0.000000,7.850000,-6.000000,6.000000,1.061451,-0.226995,0.202254,1.000000,80.031963,151.6247,1
5.7708,0.000000,0.000000,81.384391,0.000000,0.000000,16.944364,0.000000,0.000000,0.000000,0.000000,0.000000,0.000000,7.850000,-6.000000,6.000000,1.055325,-0.232807,0.206032,1.000000,80.384992,149.5738,1
5.7917,0.000000,0.000000,81.737402,0.000000,0.000000,16.944658,0.000000,0.000000,0.000000,0.000000,0.000000,0.000000,7.850000,-6.000000,6.000000,1.049057,-0.238579,0.209668,1.000000,80.738027,146.7237,1
5.8125,0.000000,0.000000,82.090420,0.000000,0.000000,16.944944,0.000000,0.000000,0.000000,0.000000,0.000000,0.000000,7.850000,-6.000000,6.000000,1.042652,-0.244311,0.213160,1.000000,81.091068,153.6477,1
5.8333,0.000000,0.000000,82.443443,0.000000,0.000000,16.945221,0.000000,0.000000,0.000000,0.000000,0.000000,0.000000,7.850000,-6.000000,6.000000,1.036114,-0.250000,0.216506,1.000000,81.444114,146.9145,1
5.8542,0.000000,0.000000,82.796472,0.000000,0.000000,16.945490,0.000000,0.000000,0.000000,0.000000,0.000000,0.000000,7.850000,-6.000000,6.000000,1.029446,-0.255647,0.219704,1.000000,81.797166,167.0749,1
5.8750,0.000000,0.000000,83.149506,0.000000,0.000000,16.945752,0.000000,0.000000,0.000000,0.000000,0.000000,0.000000,7.850000,-6.000000,6.000000,1.022654,-0.261249,0.222752,1.000000,82.150223,162.6074,1
5.8958,0.000000,0.000000,83.502546,0.000000,0.000000,16.946006,0.000000,0.000000,0.000000,0.000000,0.000000,0.000000,7.850000,-6.000000,6.000000,1.015741,-0.266807,0.225646,1.000000,82.503286,154.7906,1
5.9167,0.000000,0.000000,83.855590,0.000000,0.000000,16.946253,0.000000,0.000000,0.000000,0.000000,0.000000,0.000000,7.850000,-6.000000,6.000000,1.008712,-0.272320,0.228386,1.000000,82.856353,156.7070,1
5.9375,0.000000,0.000000,84.208640,0.000000,0.000000,16.946493,0.000000,0.000000,0.000000,0.000000,0.000000,0.000000,7.850000,-6.000000,6.000000,1.001571,-0.277785,0.230970,1.000000,83.209425,165.0145,1
5.9583,0.000000,0.000000,84.561695,0.000000,0.000000,16.946725,0.000000,0.000000,0.000000,0.000000,0.000000,0.000000,7.850000,-6.000000,6.000000,0.994323,-0.283203,0.233395,1.000000,83.562501,153.6777,1
5.9792,0.000000,0.000000,84.914755,0.000000,0.000000,16.946952,0.000000,0.000000,0.000000,0.000000,0.000000,0.000000,7.850000,-6.000000,6.000000,0.986972,-0.288573,0.235660,1.000000,83.915582,147.2440,1
6.0000,0.000000,0.000000,85.267819,0.000000,0.000000,16.947171,0.000000,0.000000,0.000000,0.000000,0.000000,0.000000,7.850000,-6.000000,6.000000,0.979523,-0.293893,0.237764,1.000000,84.268667,148.6437,1
6.0208,0.000000,0.000000,85.620888,0.000000,0.000000,16.947385,0.000000,0.000000,0.000000,0.000000,0.000000,0.000000,7.850000,-6.000000,6.000000,0.971980,-0.299162,0.239705,1.000000,84.621756,155.9854,1
6.0417,0.000000,0.000000,85.973961,0.000000,0.000000,16.947592,0.000000,0.000000,0.000000,0.000000,0.000000,0.000000,7.850000,-6.000000,6.000000,0.964348,-0.304381,0.241481,1.000000,84.974849,153.4944,1
6.0625,0.000000,0.000000,86.327038,0.000000,0.000000,16.947793,0.000000,0.000000,0.000000,0.000000,0.000000,0.000000,7.850000,-6.000000,6.000000,0.956631,-0.309547,0.243092,1.000000,85.327946,173.6877,1
6.0833,0.000000,0.000000,86.680120,0.000000,0.000000,16.947988,0.000000,0.000000,0.000000,0.000000,0.000000,0.000000,7.850000,-6.000000,6.000000,0.948834,-0.314660,0.244537,1.000000,85.681047,140.4736,1
6.1042,0.000000,0.000000,87.033205,0.000000,0.000000,16.948178,0.000000,0.000000,0.000000,0.000000,0.000000,0.000000,7.850000,-6.000000,6.000000,0.940962,-0.319720,0.245814,1.000000,86.034151,156.8227,1
6.1250,0.000000,0.000000,87.386295,0.000000,0.000000,16.948363,0.000000,0.000000,0.000000,0.000000,0.000000,0.000000,7.850000,-6.000000,6.000000,0.933018,-0.324724,0.246922,1.000000,86.387258,149.7297,1
