Time_s,Pos_X_m,Pos_Y_m,Pos_Z_m,Vel_X_ms,Vel_Y_ms,Vel_Z_ms,Roll_rad,Pitch_rad,Yaw_rad,AngVel_P_rads,AngVel_Q_rads,AngVel_R_rads,Thrust_N,Roll_Rate_Cmd_rads,Pitch_Rate_Cmd_rads,Yaw_Rate_Cmd_rads,Ref_X_m,Ref_Y_m,Ref_Z_m,Position_Error_m,Solve_Time_ms,Solve_Success
0.0000,0.000000,0.000000,0.100000,0.000000,0.000000,0.000000,0.000000,0.000000,0.000000,0.000000,0.000000,0.000000,20.000000,-1.727130,1.802601,0.004427,0.000000,0.000000,1.000000,0.900000,94.8172,1
0.0208,0.000059,0.000051,0.103076,0.009370,0.008099,0.245830,-0.136379,0.154874,-0.019763,-10.719738,12.477189,-0.734914,20.000000,8.000000,-8.000000,0.569689,0.006545,0.006544,1.000000,0.896971,59.0293,1
0.0417,0.000941,0.000800,0.109763,0.072600,0.060948,0.368489,-0.218647,0.265129,-0.049738,0.939970,0.686107,-0.635368,20.000000,1.919547,-5.049880,0.410913,0.013088,0.013084,1.000000,0.890405,59.6676,1
0.0625,0.003651,0.003046,0.119442,0.161986,0.138154,0.530307,-0.186609,-0.000199,0.000004,1.326859,-21.711413,3.907068,20.000000,2.096336,8.000000,-2.205359,0.019630,0.019615,1.000000,0.880859,134.7795,1
0.0833,0.006927,0.006612,0.131726,0.137046,0.190198,0.628329,-0.082637,-0.370990,0.024276,7.742814,-14.999514,1.688783,20.000000,-6.423854,8.000000,-0.529897,0.026168,0.026132,1.000000,0.868706,44.1039,1
0.1042,0.007434,0.011034,0.148055,-0.065669,0.221521,0.881331,-0.052862,-0.542605,-0.035921,-2.559722,-3.500410,-5.231301,16.278950,1.834900,8.000000,2.942606,0.032702,0.032632,1.000000,0.852593,57.6961,1
0.1250,0.003405,0.016036,0.168265,-0.280536,0.256999,1.027462,-0.089382,-0.576285,-0.083704,-0.882665,-0.243039,-1.889360,3.890194,1.231993,8.000000,1.507489,0.039230,0.039109,1.000000,0.832826,52.9046,1
0.1458,-0.004542,0.021951,0.190482,-0.445410,0.304631,1.093801,-0.179817,-0.419948,-0.118845,-4.338452,13.229747,-5.077545,3.560208,5.865125,-4.883254,3.301278,0.045751,0.045559,1.000000,0.811423,43.7291,1
0.1667,-0.015013,0.029022,0.213623,-0.534025,0.364576,1.124194,-0.187879,-0.298968,-0.124529,3.679204,0.870766,2.407193,5.205291,-1.184159,6.895665,-0.375311,0.052264,0.051978,1.000000,0.789583,33.8275,1
0.1875,-0.027293,0.037626,0.238975,-0.618812,0.440040,1.281376,-0.103739,0.015602,-0.139080,7.114969,23.530803,-1.327355,20.000000,-6.290761,-8.000000,0.696723,0.058769,0.058361,1.000000,0.766156,79.9127,1
0.2083,-0.039832,0.047422,0.269293,-0.562157,0.486191,1.568472,-0.179875,0.373514,-0.145871,-6.120753,13.464159,2.870435,20.000000,7.999998,-8.000000,-0.744724,0.065263,0.064705,1.000000,0.738428,57.7021,1
0.2292,-0.049093,0.058330,0.305105,-0.354564,0.553790,1.813271,-0.211546,0.484169,-0.142424,3.047231,0.195715,-0.838705,8.714311,-0.123841,-2.593972,0.983190,0.071746,0.071004,1.000000,0.705437,53.1390,1
0.2500,-0.054603,0.070391,0.343750,-0.208212,0.591819,1.885123,-0.050062,0.296826,-0.088345,8.120664,-16.326228,-0.375453,20.000000,-6.164279,8.000000,0.809811,0.078217,0.077254,1.000000,0.669591,34.8942,1
0.2708,-0.057872,0.082781,0.383997,-0.132726,0.592605,1.965673,0.010902,0.121230,-0.039198,-1.842046,-3.654427,2.845733,6.568486,2.310339,3.486908,-1.363772,0.084675,0.083452,1.000000,0.632282,45.2237,1
0.2917,-0.060227,0.095034,0.425564,-0.100092,0.584095,2.014908,0.120569,0.188328,0.005034,9.811247,7.828452,0.425742,0.236998,-8.000000,-7.313689,-0.378623,0.091118,0.089592,1.000000,0.594063,27.6053,1
0.3125,-0.061698,0.106785,0.468095,-0.047841,0.546342,2.057970,0.176535,0.207573,0.019234,-2.132232,-3.635976,-0.138385,4.182832,1.063259,2.493947,0.057067,0.097545,0.095671,1.000000,0.555342,29.7353,1
0.3333,-0.061869,0.117478,0.512048,0.019241,0.491269,2.143922,0.226135,0.333049,0.036408,4.986027,12.535747,0.344180,0.000001,-5.963322,-8.000000,-0.721510,0.103956,0.101684,1.000000,0.515601,43.4432,1
0.3542,-0.060384,0.127014,0.557079,0.111961,0.434495,2.170668,0.184561,0.450692,0.029179,-6.664566,0.992569,0.974937,0.940494,4.571773,-3.717397,-0.467642,0.110349,0.107628,1.000000,0.475084,55.3255,1
0.3750,-0.056669,0.135492,0.602569,0.220834,0.390630,2.193255,0.174691,0.329617,-0.026428,3.708395,-10.528073,-4.420705,0.000000,-4.081895,6.684286,2.691724,0.116723,0.113498,1.000000,0.434166,110.8813,1
0.3958,-0.051070,0.143033,0.648675,0.295590,0.341866,2.227677,0.131442,0.253335,-0.044810,-6.086860,1.114390,2.126855,0.000000,4.147973,-2.569033,-0.877822,0.123077,0.119290,1.000000,0.392836,57.4973,1
0.4167,-0.044313,0.149791,0.694912,0.343173,0.315330,2.214293,0.077979,0.192845,-0.033525,-0.225408,-5.387258,0.615088,0.000000,-0.242902,3.141642,-0.140538,0.129410,0.125000,1.000000,0.351956,48.8663,1
0.4375,-0.036732,0.156148,0.740761,0.375699,0.298430,2.192120,0.081722,0.143436,-0.016499,0.308586,-0.368230,0.914054,0.000000,-0.719895,-0.671618,-0.405501,0.135720,0.130625,1.000000,0.312404,33.3097,1
0.4583,-0.028672,0.162209,0.785522,0.394156,0.285847,2.119529,0.088319,0.135853,0.003437,0.312941,-0.364523,0.912089,0.000000,-0.770193,-0.653894,-0.491572,0.142008,0.136160,1.000000,0.275338,36.8273,1
0.4792,-0.020238,0.168001,0.828788,0.411883,0.272717,2.048316,0.093604,0.127033,0.023032,0.220549,-0.457677,0.903660,0.000000,-0.733376,-0.547433,-0.572503,0.148271,0.141602,1.000000,0.241672,31.6856,1
0.5000,-0.011446,0.173514,0.870582,0.428616,0.259253,1.978058,0.096068,0.115542,0.041984,0.079493,-0.608261,0.889250,0.000000,-0.637306,-0.372267,-0.648273,0.154508,0.146946,1.000000,0.212121,30.0398,1
0.5208,-0.002324,0.178749,0.910899,0.443748,0.245953,1.906714,0.097185,0.102805,0.060599,0.088010,-0.607533,0.886680,0.000000,-0.657022,-0.311887,-0.730661,0.160720,0.152190,1.000000,0.187690,35.5098,1
0.5417,0.007095,0.183706,0.949757,0.457496,0.232620,1.837510,0.096165,0.088060,0.078729,-0.056287,-0.778310,0.866415,0.000000,-0.535564,-0.090756,-0.801301,0.166903,0.157330,1.000000,0.169584,28.1289,1
0.5625,0.016776,0.188391,0.987157,0.469186,0.219779,1.767110,0.093711,0.071988,0.096549,-0.044870,-0.778991,0.863653,0.000000,-0.534604,0.001366,-0.881609,0.173059,0.162362,1.000000,0.158955,29.1202,1
0.5833,0.026675,0.192813,1.023097,0.478851,0.207328,1.697179,0.091210,0.055929,0.114350,-0.033430,-0.779279,0.861101,0.000000,-0.534922,0.095889,-0.961946,0.179184,0.167283,1.000000,0.156347,16.0410,1
0.6042,0.036749,0.196981,1.057586,0.486486,0.195195,1.627669,0.088662,0.039885,0.132138,-0.021985,-0.779174,0.858757,0.000000,-0.536347,0.193111,-1.042334,0.185279,0.172089,1.000000,0.161235,31.7297,1
0.6250,0.046959,0.200897,1.090651,0.492128,0.183206,1.560157,0.084103,0.021945,0.149548,-0.143543,-0.953499,0.831024,0.000000,-0.412050,0.457669,-1.107394,0.191342,0.176777,1.000000,0.172180,47.6069,1
0.6458,0.057255,0.204570,1.122294,0.495290,0.171796,1.491389,0.078195,0.002762,0.166761,-0.129260,-0.954220,0.828876,0.000000,-0.393129,0.590459,-1.186222,0.197372,0.181344,1.000000,0.187425,48.5916,1
0.6667,0.067588,0.208005,1.152583,0.496135,0.160284,1.428912,0.079466,-0.009147,0.183753,0.347867,-0.281302,0.809279,0.000000,-0.823922,0.090733,-1.253345,0.203368,0.185786,1.000000,0.205455,16.2625,1
0.6875,0.077916,0.211175,1.181873,0.494934,0.146866,1.390600,0.049494,-0.051825,0.194303,-1.924163,-3.626067,0.221390,0.000000,1.310127,3.293333,-0.995567,0.209330,0.190101,1.000000,0.225370,47.7784,1
0.7083,0.088101,0.214024,1.211504,0.485210,0.129413,1.443382,0.141619,0.027807,0.196437,7.279198,10.071389,0.147746,0.000000,-7.222724,-8.000000,-1.100916,0.215256,0.194286,1.000000,0.247572,15.8978,1
0.7292,0.098382,0.216275,1.242203,0.503156,0.090550,1.492883,0.184744,0.060863,0.168642,-2.112817,-3.343549,-2.492377,0.000000,0.404760,2.031271,0.657580,0.221144,0.198338,1.000000,0.272130,47.6723,1
0.7500,0.109020,0.217830,1.272652,0.514243,0.065187,1.440957,0.107645,0.020867,0.121828,-4.206940,-1.785239,-1.886629,0.000000,2.693533,1.099636,0.501602,0.226995,0.202254,1.000000,0.297489,18.5194,1
0.7708,0.119783,0.218988,1.302064,0.517503,0.050741,1.392498,0.040453,0.002499,0.081450,-2.381718,-0.844815,-1.913273,0.000000,1.670000,0.466881,0.688476,0.232807,0.206032,1.000000,0.322777,31.9817,1
0.7917,0.130559,0.219976,1.330305,0.516622,0.046095,1.331022,-0.002717,-0.018555,0.042571,-1.762827,-1.340360,-1.852668,0.000000,1.483177,1.044359,0.822700,0.238579,0.209668,1.000000,0.347672,32.0733,1
0.8125,0.141273,0.220943,1.357190,0.512245,0.047330,1.263434,-0.040550,-0.044804,0.005224,-1.798224,-1.277383,-1.848895,0.000000,1.820493,1.190305,0.984702,0.244311,0.213160,1.000000,0.371836,52.3970,1
0.8333,0.151847,0.222005,1.382753,0.503811,0.054124,1.202697,-0.069817,-0.079356,-0.029816,-1.182062,-1.891140,-1.704993,0.000000,1.553824,1.974907,1.065333,0.250000,0.216506,1.000000,0.395176,47.5502,1
0.8542,0.162188,0.223266,1.407026,0.490820,0.065373,1.140017,-0.099908,-0.112779,-0.062740,-1.720636,-1.292758,-1.737239,0.000000,2.285766,1.728761,1.233193,0.255647,0.219704,1.000000,0.417633,25.8999,1
0.8750,0.172183,0.224843,1.430186,0.471640,0.083154,1.092651,-0.108778,-0.167229,-0.089348,0.081911,-3.445190,-1.036067,0.000000,0.889892,3.999751,0.990544,0.261249,0.222752,1.000000,0.439315,32.3141,1
0.8958,0.181582,0.226924,1.453046,0.437028,0.112373,1.100075,-0.195427,-0.143528,-0.113298,-6.585381,4.910090,-2.421165,0.000000,7.228907,-3.302787,1.851278,0.266807,0.225646,1.000000,0.460994,32.2866,1
0.9167,0.190283,0.229945,1.476546,0.405688,0.169410,1.146171,-0.205712,-0.197120,-0.097138,3.112660,-7.377745,2.950410,0.000000,-0.597595,7.477892,-1.126798,0.272320,0.228386,1.000000,0.483558,41.0345,1
0.9375,0.198181,0.234119,1.500853,0.357978,0.216105,1.180692,0.016211,-0.216355,-0.095513,14.932706,1.843039,2.464693,0.000000,-8.000000,0.101941,-0.811306,0.277785,0.230970,1.000000,0.507149,42.9914,1
0.9583,0.204965,0.238593,1.525817,0.303506,0.205932,1.209582,0.210029,-0.271422,-0.134137,4.577686,-7.103124,-1.618429,0.000000,-5.212839,7.999999,1.527438,0.283203,0.233395,1.000000,0.531631,35.2566,1
0.9792,0.210346,0.242330,1.551507,0.225659,0.161069,1.247890,0.169562,-0.266343,-0.151838,-5.955355,5.666287,-1.287946,0.000000,3.936624,-2.582390,1.250849,0.288573,0.235660,1.000000,0.557067,93.7839,1
1.0000,0.214114,0.245268,1.578016,0.152111,0.129865,1.289457,0.172193,-0.314981,-0.149210,3.579302,-7.620455,1.275826,0.000000,-3.964335,8.000000,0.019300,0.293893,0.237764,1.000000,0.583544,111.3114,1
1.0208,0.216215,0.247575,1.605349,0.064316,0.097389,1.326033,0.116069,-0.318936,-0.111386,-6.770459,5.195528,0.577643,0.000000,4.913624,-1.680419,0.066924,0.299162,0.239705,1.000000,0.611056,70.0140,1
1.0417,0.216496,0.249341,1.633449,-0.019395,0.078662,1.364483,0.099376,-0.373469,-0.049037,3.131056,-7.453133,4.391189,0.000000,-2.834138,8.000000,-2.230943,0.304381,0.241481,1.000000,0.639565,86.6413,1
1.0625,0.214615,0.250616,1.662949,-0.142169,0.044404,1.447727,0.236185,-0.473143,-0.012302,7.487987,-3.218752,4.739891,0.000000,-7.260414,6.506988,-2.617304,0.309547,0.243092,1.000000,0.669753,65.6815,1
1.0833,0.209521,0.250394,1.694626,-0.314292,-0.056350,1.565326,0.431128,-0.528407,-0.035643,8.591073,-2.516781,2.495350,0.000000,-8.000000,6.641818,-1.430875,0.314660,0.244537,1.000000,0.702562,62.4785,1
1.1042,0.201724,0.248131,1.726725,-0.414210,-0.147388,1.522136,0.575359,-0.528288,-0.063417,4.194471,1.160417,2.059893,0.000000,-7.114533,3.682255,-1.404649,0.319720,0.245814,1.000000,0.736245,83.6704,1
1.1250,0.191910,0.243690,1.757767,-0.507391,-0.258723,1.468361,0.603650,-0.455719,-0.034040,-0.552474,4.878048,2.172118,0.000000,-3.683168,0.100517,-1.659364,0.324724,0.246922,1.000000,0.769325,75.4046,1
1.1458,0.180098,0.236526,1.788186,-0.605962,-0.398759,1.456307,0.488090,-0.466903,-0.086413,-8.222751,-3.685848,-9.497881,0.000000,2.363538,6.830784,5.029636,0.329673,0.247861,1.000000,0.802333,57.6644,1
1.1667,0.165368,0.226239,1.819703,-0.781333,-0.545455,1.552045,0.288264,-0.577239,-0.157645,-9.409546,-4.498382,-7.319978,0.000000,4.559248,7.999999,4.439375,0.334565,0.248630,1.000000,0.837283,93.4660,1
1.1875,0.146406,0.214022,1.853260,-1.001035,-0.601322,1.648390,0.046424,-0.711641,-0.137218,-10.659154,-5.210219,-5.109930,0.000000,7.138968,8.000000,3.376142,0.339400,0.249229,1.000000,0.875522,99.1740,1
1.2083,0.122447,0.201792,1.888570,-1.253058,-0.565791,1.720987,-0.277509,-0.844322,0.014070,-11.996831,-5.750215,-2.736495,0.000000,8.000000,8.000000,1.236296,0.344177,0.249657,1.000000,0.917067,80.5132,1
1.2292,0.094522,0.190720,1.923439,-1.399845,-0.504233,1.638710,-0.562004,-0.881947,0.216464,-6.394919,-0.635293,0.433728,0.000000,7.695254,7.999999,-0.259909,0.348895,0.249914,1.000000,0.959661,64.1000,1
1.2500,0.062967,0.181459,1.956746,-1.590486,-0.404456,1.572768,-0.516699,-0.751517,0.244461,4.176410,11.379861,4.104480,0.000000,-0.440077,-1.956517,-2.096634,0.353553,0.250000,1.000000,1.002248,80.3940,1
1.2708,0.027633,0.174139,1.988983,-1.763430,-0.317944,1.534506,-0.523435,-0.676217,0.274463,-4.653497,-1.995857,-0.348919,0.000000,6.615863,7.999999,-0.310212,0.358151,0.249914,1.000000,1.045501,64.6653,1
1.2917,-0.011166,0.168607,2.020566,-1.927407,-0.229958,1.504059,-0.447902,-0.571008,0.245717,5.652505,10.758038,1.227171,0.000000,-1.770694,-1.915595,-0.845625,0.362687,0.249657,1.000000,1.089904,94.9190,1
1.3125,-0.053121,0.164806,2.051769,-2.067681,-0.152579,1.496917,-0.426083,-0.520683,0.221906,-3.318112,-2.859804,-1.703191,0.000000,5.270187,7.999951,0.418496,0.367161,0.249229,1.000000,1.135774,111.3522,1
1.3333,-0.097835,0.162614,2.082936,-2.197764,-0.073074,1.495701,-0.335078,-0.435097,0.152351,7.433268,9.697418,-1.107406,0.000000,-3.688123,-0.989136,0.573052,0.371572,0.248630,1.000000,1.183424,79.6988,1
1.3542,-0.144594,0.161732,2.113606,-2.270534,-0.024281,1.459459,-0.212538,-0.241290,0.058721,2.529264,10.051514,-3.185170,0.000000,-0.562751,-0.345674,2.222964,0.375920,0.247861,1.000000,1.232262,81.6748,1
1.3750,-0.192709,0.161997,2.145143,-2.325989,0.036398,1.552144,-0.185171,-0.003069,-0.000798,-0.002917,12.444431,-2.182258,0.000000,1.644472,2.046755,2.823498,0.380203,0.246922,1.000000,1.283275,92.6516,1
1.3958,-0.241006,0.163632,2.179547,-2.299709,0.106565,1.716725,-0.191736,0.260294,-0.014962,-0.244761,12.776543,0.416434,0.000000,2.919555,3.629622,1.413042,0.384421,0.245814,1.000000,1.337626,64.1348,1
1.4167,-0.288131,0.166318,2.215060,-2.229562,0.143892,1.694124,-0.199450,0.584905,-0.022698,-0.027340,17.444159,-0.641074,0.000000,4.965791,-4.450849,4.779462,0.388573,0.244537,1.000000,1.392989,112.7503,1
1.4375,-0.332681,0.169886,2.250369,-2.069545,0.187033,1.689750,-0.024079,0.806422,0.037957,10.272414,6.270139,-4.804532,0.000000,-8.000000,7.009741,4.742571,0.392658,0.243092,1.000000,1.447377,115.2189,1
1.4583,-0.373336,0.173931,2.285162,-1.868074,0.194208,1.651763,0.227015,1.065771,0.266271,2.481601,17.433374,6.114681,6.858587,4.969115,-8.000000,4.431054,0.396677,0.241481,1.000000,1.499708,725.4779,1
1.4792,-0.409193,0.177989,2.318504,-1.618664,0.196257,1.556497,0.801044,1.216098,0.810864,8.108366,8.557632,-3.301042,19.999999,-8.000000,-8.000000,4.459859,0.400627,0.239705,1.000000,1.548570,79.6940,1
1.5000,-0.437076,0.181942,2.349750,-1.150151,0.181671,1.454906,1.118085,1.103948,1.124159,7.799460,-2.804416,3.239290,20.000000,-6.117462,-2.718451,-3.198573,0.404508,0.237764,1.000000,1.591605,80.3726,1
1.5208,-0.456332,0.185557,2.378425,-0.774436,0.169671,1.326869,1.116229,0.960343,1.179603,5.281961,-2.869213,2.369868,20.000000,-4.619066,-4.672794,-3.432939,0.408321,0.235660,1.000000,1.627941,79.3917,1
1.5417,-0.468151,0.189050,2.404632,-0.430320,0.167327,1.215761,1.014251,0.845939,1.146778,2.927049,-6.367331,2.061182,19.999999,-4.573428,-3.172485,-3.659327,0.412063,0.233395,1.000000,1.658232,111.2175,1
1.5625,-0.472943,0.192586,2.428994,-0.099394,0.172238,1.145215,0.816385,0.736126,1.040377,0.765130,-9.660644,1.297545,5.686818,-3.325400,0.341702,-3.481183,0.415735,0.230970,1.000000,1.683224,79.3202,1
1.5833,-0.470939,0.196309,2.452750,0.220895,0.183753,1.145605,0.592547,0.633046,0.909466,-1.460629,-9.647557,-0.043729,0.000000,-0.923632,1.803284,-2.859630,0.419335,0.228386,1.000000,1.704142,63.7352,1
1.6042,-0.462947,0.200346,2.477173,0.485471,0.201619,1.196741,0.383976,0.553846,0.773008,-3.480052,-8.088422,-1.615108,0.000000,1.542190,1.746945,-1.908999,0.422864,0.225646,1.000000,1.722597,63.9286,1
1.6250,-0.450850,0.204780,2.502086,0.642430,0.221177,1.196458,0.350555,0.624852,0.678344,-2.671642,8.031526,-5.416911,0.000000,1.272931,-8.000000,0.294406,0.426320,0.222752,1.000000,1.739544,71.9886,1
1.6458,-0.435369,0.209581,2.526895,0.814019,0.231884,1.183914,0.544201,0.646976,0.563438,10.206627,2.744783,-15.222753,0.000000,-7.999999,-7.999997,5.999999,0.429703,0.219704,1.000000,1.754953,75.0780,1
1.6667,-0.415055,0.213519,2.552202,1.080331,0.141904,1.230757,0.818615,0.574001,0.426245,11.768387,1.494588,-13.431750,0.000000,-8.000000,-7.774148,5.923763,0.433013,0.216506,1.000000,1.768774,89.3745,1
1.6875,-0.389579,0.213941,2.577938,1.310610,-0.076125,1.230170,1.110573,0.492474,0.316182,13.246586,0.133560,-11.730090,0.000000,-8.000000,-7.971672,5.103973,0.436248,0.213160,1.000000,1.780977,65.5262,1
1.7083,-0.360097,0.208553,2.602766,1.474830,-0.390484,1.154287,1.420153,0.397342,0.226756,14.707547,-1.538132,-9.999134,0.000000,-8.000000,-7.985481,4.546188,0.439409,0.209668,1.000000,1.791109,95.2926,1
1.7292,-0.328145,0.195885,2.624790,1.563050,-0.756678,0.977477,1.745515,0.279176,0.149382,15.989991,-3.796537,-8.195386,0.000000,-8.000000,-7.421292,3.767510,0.442494,0.206032,1.000000,1.798313,111.7861,1
1.7500,-0.295191,0.175498,2.641672,1.587581,-1.122944,0.682667,2.081782,0.125963,0.069155,16.704752,-6.878084,-6.470821,0.000000,-8.000000,-7.974240,2.849771,0.445503,0.202254,1.000000,1.801231,111.0089,1
1.7708,-0.262164,0.148038,2.650919,1.583042,-1.438407,0.269943,2.424916,-0.071436,-0.039132,16.325647,-10.778459,-5.305735,0.000001,-8.000000,-7.999995,5.283388,0.448436,0.198338,1.000000,1.798060,110.6195,1
1.7917,-0.229046,0.115062,2.650348,1.600807,-1.666039,-0.234995,2.783380,-0.308688,-0.216648,14.478514,-14.973164,-5.522796,7.848000,0.000000,0.000000,0.000000,0.451293,0.194286,1.000000,1.786837,986.5224,0
1.8125,-0.195187,0.079415,2.640639,1.648384,-1.734844,-0.620415,-3.100401,-0.541073,-0.495470,11.190244,-17.144883,-5.587861,14.515324,8.000000,-1.958833,4.966382,0.454072,0.190101,1.000000,1.767904,263.2623,1
1.8333,-0.158566,0.042362,2.621165,1.844770,-1.802270,-1.136237,-2.607926,-0.693826,-0.953614,8.965873,-18.299437,-9.889810,0.000001,8.000000,-1.580832,6.000000,0.456773,0.185786,1.000000,1.739939,112.0358,1
1.8542,-0.117782,0.004400,2.592892,2.039848,-1.834451,-1.495340,-2.040718,-0.558974,-1.401325,16.699012,-19.007640,-1.291223,0.000000,4.783200,3.413931,4.438092,0.459396,0.181344,1.000000,1.703452,95.9888,1
1.8750,-0.070964,-0.034158,2.557547,2.391436,-1.859284,-1.812501,-1.595181,-0.217135,-1.685742,17.345351,-18.840671,-7.750277,0.000000,2.096804,4.397688,6.000000,0.461940,0.176777,1.000000,1.659649,69.9458,1
1.8958,-0.016555,-0.073464,2.517295,2.755820,-1.915452,-1.996208,-1.350582,0.249032,-1.916472,20.828249,-14.666867,-12.185397,0.000000,-3.757136,-0.461906,6.000000,0.464405,0.172089,1.000000,1.610529,89.8640,1
1.9167,0.044131,-0.114838,2.474030,3.010274,-2.046889,-2.131537,-1.544174,0.780088,-2.321123,30.443971,-1.410234,-12.484953,0.000000,-7.476772,-8.000000,6.000000,0.466790,0.167283,1.000000,1.559165,95.6810,1
1.9375,0.110070,-0.160670,2.427117,3.260662,-2.306303,-2.354961,-2.625475,1.036883,2.924739,33.836911,-3.077599,-3.154416,0.000000,3.504389,8.000000,-4.345816,0.469096,0.162362,1.000000,1.506623,269.8915,1
1.9583,0.179827,-0.210588,2.374130,3.405377,-2.444803,-2.682305,2.795876,0.591502,2.151136,35.107504,2.809265,-5.203174,7.848000,0.000000,0.000000,0.000000,0.471321,0.157330,1.000000,1.452090,896.8399,0
1.9792,0.252026,-0.261912,2.313885,3.505244,-2.461412,-3.033859,2.386604,-0.023976,1.952089,33.697034,-7.543955,-4.852329,7.848000,0.000000,0.000000,0.000000,0.473465,0.152190,1.000000,1.395281,932.7223,0
2.0000,0.326466,-0.312297,2.246556,3.623109,-2.380365,-3.353466,1.918495,-0.554641,1.902979,29.298557,-12.382404,-12.456238,7.848000,0.000000,0.000000,0.000000,0.475528,0.146946,1.000000,1.336797,726.1617,0
2.0208,0.403847,-0.360566,2.173709,3.779990,-2.278933,-3.579018,1.359748,-1.011946,1.935810,25.646049,-7.753633,-20.058918,0.000000,-8.000000,-8.000000,-2.361386,0.477510,0.141602,1.000000,1.278746,528.0659,1
2.0417,0.485501,-0.407451,2.097198,4.012522,-2.252017,-3.731047,1.443033,-1.515297,1.205061,26.722768,9.249178,-34.029092,0.000000,-8.000000,-8.000000,6.000000,0.479410,0.136160,1.000000,1.224497,112.3891,1
2.0625,0.572837,-0.456543,2.017010,4.291563,-2.449069,-3.954594,-2.834837,-0.896558,-1.388793,35.299414,12.548265,-23.511264,7.848000,0.000000,0.000000,0.000000,0.481228,0.130625,1.000000,1.177907,718.4238,0
2.0833,0.662956,-0.508994,1.930782,4.337169,-2.552319,-4.276092,-2.997578,-0.082050,-1.681389,40.153963,3.387106,-15.133591,0.000000,8.000000,-8.000000,6.000000,0.482963,0.125000,1.000000,1.140483,233.1266,1
2.1042,0.753478,-0.562084,1.836352,4.354139,-2.517486,-4.700219,-2.979315,0.870386,-2.000289,43.568823,-22.424188,-20.668281,0.000000,-8.000000,3.090375,-0.167424,0.484615,0.119290,1.000000,1.111774,159.0562,1
2.1250,0.845422,-0.612356,1.734376,4.469987,-2.338652,-4.998583,1.413691,1.388408,1.944910,29.793221,-9.206624,-22.790707,7.848000,0.000000,0.000000,0.000000,0.486185,0.113498,1.000000,1.093263,742.8479,0
2.1458,0.940391,-0.659709,1.628227,4.622445,-2.243474,-5.149529,1.230067,0.830800,1.209915,26.681061,0.767167,-26.656632,7.848000,0.000000,0.000000,0.000000,0.487671,0.107628,1.000000,1.090151,840.7612,0
2.1667,1.038729,-0.706610,1.519354,4.782285,-2.272974,-5.282128,1.699831,0.395153,0.967234,28.504116,9.694044,-21.250586,7.848000,0.000000,0.000000,0.000000,0.489074,0.101684,1.000000,1.106883,994.5352,0
2.1875,1.139889,-0.755294,1.406825,4.896434,-2.382980,-5.495534,2.301441,0.048028,0.768511,32.485085,9.876777,-11.991515,7.848000,0.000000,0.000000,0.000000,0.490393,0.095671,1.000000,1.145205,853.9989,0
2.2083,1.242681,-0.806045,1.288539,4.952853,-2.459627,-5.809654,2.943881,-0.290126,0.517868,34.483472,2.118855,-6.707926,7.848000,0.000000,0.000000,0.000000,0.491627,0.089592,1.000000,1.203953,724.9093,0
2.2292,1.346285,-0.857032,1.163150,4.986957,-2.422510,-6.155591,-2.620023,-0.571399,0.052351,32.587818,-6.556882,-8.877156,0.000000,8.000000,8.000000,6.000000,0.492778,0.083452,1.000000,1.280469,122.4804,1
2.2500,1.451895,-0.904724,1.029662,5.136165,-2.185239,-6.551035,-1.839741,-0.547259,-0.682879,28.962048,-8.066104,-18.028576,0.000000,8.000000,8.000000,6.000000,0.493844,0.077254,1.000000,1.372233,99.6466,1
2.2708,1.561877,-0.947017,0.890342,5.388228,-1.939743,-6.754682,-1.444646,-0.133132,-1.311010,25.826668,-0.410355,-24.827286,0.000000,8.000000,8.000000,6.000000,0.494826,0.071004,1.000000,1.478847,79.9978,1
2.2917,1.678127,-0.986135,0.748318,5.711888,-1.865572,-6.857450,-1.588200,0.392785,-1.858356,26.990223,10.689705,-22.447427,0.000000,8.000000,-5.391662,6.000000,0.495722,0.064705,1.000000,1.601777,112.2003,1
2.3125,1.799603,-1.025738,0.603503,5.904971,-1.935165,-7.025397,-2.063176,0.795523,-2.448023,24.940192,0.135333,-11.730966,0.000000,8.000000,-8.000000,6.000000,0.496534,0.058361,1.000000,1.740824,176.1200,1
2.3333,1.924649,-1.067338,0.454267,6.064036,-2.038247,-7.260158,-2.694538,1.107426,3.074269,17.539436,-12.837427,-13.328164,0.000000,8.000000,-8.000000,3.610147,0.497261,0.051978,1.000000,1.894236,254.9312,1
2.3542,2.052809,-1.111198,0.299999,6.207740,-2.154652,-7.498011,2.516149,1.186210,1.660037,10.042050,-16.770456,-25.608458,7.848000,0.000000,0.000000,0.000000,0.497902,0.045559,1.000000,2.060539,757.5040,0
2.3750,2.183019,-1.157647,0.141312,6.269847,-2.285758,-7.695865,2.198114,0.828886,0.850360,16.662068,-12.127920,-23.917136,7.848000,0.000000,0.000000,0.000000,0.498459,0.039109,1.000000,2.237703,838.9719,0
2.3958,2.312443,-1.236710,0.085700,5.921194,-4.488066,-0.703393,-2.482957,0.420518,1.591051,57.231213,64.589722,-10.562640,7.848000,0.000000,0.000000,0.000000,0.498929,0.032632,1.000000,2.394996,1044.6880,0
2.4167,2.407864,-1.338352,0.122240,4.212322,-4.870758,2.210640,-1.810436,-0.638646,1.394458,44.178845,30.332721,2.727916,20.000000,-8.000000,-8.000000,-2.905471,0.499315,0.026132,1.000000,2.504963,476.6386,1
2.4375,2.491518,-1.438331,0.165003,3.881125,-4.758703,1.981259,-0.291872,-1.163539,0.458500,42.165627,12.667879,20.097131,20.000000,-8.000000,-3.147182,-6.000000,0.499615,0.019615,1.000000,2.605859,95.5188,1
2.4583,2.568028,-1.537891,0.205139,3.540842,-4.824250,1.883790,1.598472,-0.843731,-0.908743,46.904313,-4.913786,8.282750,7.848000,0.000000,0.000000,0.000000,0.499829,0.013084,1.000000,2.704584,1068.7461,0
2.4792,2.639548,-1.639570,0.241530,3.362531,-4.914994,1.637376,2.162434,-0.000215,-1.246853,45.970805,2.428388,-8.433644,7.848000,0.000000,0.000000,0.000000,0.499957,0.006544,1.000000,2.804072,822.6807,0
2.5000,2.707319,-1.742152,0.271602,3.177057,-4.911814,1.314867,2.058924,0.931722,-1.498230,41.562962,18.737459,-3.756464,20.000000,-8.000000,-3.118195,-6.000000,0.500000,-0.000000,1.000000,2.904809,259.5289,1
2.5208,2.769180,-1.842785,0.295334,2.827702,-4.772586,1.054837,-0.341380,1.177892,2.663007,42.319543,17.470871,15.379989,20.000000,-8.000000,-8.000000,-6.000000,0.499957,-0.006544,1.000000,3.002950,287.3802,1
2.5417,2.823831,-1.941686,0.316265,2.492943,-4.763969,0.980280,-1.315707,0.443928,2.338412,48.349571,-1.051056,16.865461,20.000000,-8.000000,6.287174,-5.999984,0.499829,-0.013084,1.000000,3.096447,143.8944,1
2.5625,2.871025,-2.044104,0.335010,2.121276,-5.030275,0.796275,-2.213486,-0.285488,2.258144,57.203938,-6.411086,-12.240910,0.000000,-8.000000,8.000000,3.490570,0.499615,-0.019615,1.000000,3.188158,254.7293,1
2.5833,2.912694,-2.149496,0.347182,1.917414,-5.041785,0.437127,2.726284,-1.337069,2.853880,63.490325,21.330882,-20.432541,7.848000,0.000000,0.000000,0.000000,0.499315,-0.026132,1.000000,3.280129,831.5673,0
2.6042,2.950672,-2.252658,0.353415,1.764895,-4.888944,0.240434,0.531056,-0.298074,-1.417488,65.540836,14.408439,6.726903,7.848000,0.000000,0.000000,0.000000,0.498929,-0.032632,1.000000,3.370109,955.5335,0
2.6250,2.985958,-2.353982,0.357853,1.649384,-4.879185,0.193785,1.063986,0.977595,-1.004031,64.148657,-10.044822,-1.744116,7.848000,0.000000,0.000000,0.000000,0.498459,-0.039109,1.000000,3.458127,1220.6521,0
2.6458,3.018845,-2.457275,0.359810,1.527012,-5.008712,-0.003861,-2.836137,0.796826,0.776630,58.026745,-1.785001,-23.334153,20.000000,-8.000000,8.000000,6.000000,0.497902,-0.045559,1.000000,3.547023,164.3400,1
2.6667,3.047465,-2.562105,0.354373,1.268450,-4.993872,-0.431291,-1.794415,0.103221,0.735897,53.537396,14.806512,-18.383267,20.000000,-8.000000,-7.999999,4.804808,0.497261,-0.051978,1.000000,3.636085,158.7298,1
2.6875,3.069870,-2.661731,0.341984,0.956309,-4.630769,-0.640563,-0.805169,-0.299034,0.576582,46.004243,7.987791,5.808059,20.000000,-8.000000,-3.608830,-3.731821,0.496534,-0.058361,1.000000,3.719217,142.7770,1
2.7083,3.087214,-2.756021,0.329096,0.749713,-4.493427,-0.587355,0.159775,-0.757176,0.254809,43.998734,-9.075806,6.612206,7.817244,-8.000000,8.000000,0.931193,0.495722,-0.064705,1.000000,3.795935,636.7769,1
2.7292,3.100764,-2.850499,0.316543,0.580666,-4.581678,-0.629037,1.249166,-0.839235,-0.583607,28.653515,-6.157223,-5.320686,7.848000,0.000000,0.000000,0.000000,0.494826,-0.071004,1.000000,3.870868,825.2144,0
2.7500,3.110970,-2.947340,0.301385,0.426348,-4.691343,-0.806106,1.827585,-0.474425,-1.152488,26.346853,-4.323430,-11.865799,7.848000,0.000000,0.000000,0.000000,0.493844,-0.077254,1.000000,3.946492,890.2962,0
2.7708,3.117677,-3.045986,0.281483,0.249744,-4.753558,-1.062071,1.978711,0.024898,-1.490586,24.560834,1.714010,-14.679158,7.848000,0.000000,0.000000,0.000000,0.492778,-0.083452,1.000000,4.022806,965.4653,0
2.7917,3.120530,-3.144811,0.255894,0.061270,-4.724259,-1.336451,1.811813,0.510730,-1.832248,24.020100,7.887522,-12.328647,20.000000,-8.000000,8.000000,5.999999,0.491627,-0.089592,1.000000,4.098681,747.1757,1
2.8125,3.117790,-3.241282,0.224793,-0.256997,-4.556389,-1.579066,1.264915,0.817555,-2.341309,22.228743,11.621664,-4.023671,20.000000,-8.000000,-8.000000,6.000000,0.490393,-0.095671,1.000000,4.171215,159.7021,1
2.8333,3.107523,-3.333006,0.190889,-0.642119,-4.308217,-1.628380,0.345512,0.722229,-3.004462,29.039782,20.495636,3.493604,20.000000,-8.000000,-8.000000,6.000000,0.489074,-0.101684,1.000000,4.237024,144.0413,1
2.8542,3.090403,-3.421307,0.158815,-0.919609,-4.229437,-1.458214,-0.469835,0.238252,3.063772,38.387701,23.181837,11.116444,20.000000,-8.000000,-8.000000,-6.000000,0.487671,-0.107628,1.000000,4.296775,511.8194,1
2.8750,3.070342,-3.511289,0.129617,-0.969232,-4.411229,-1.383330,-1.340115,-0.203699,-3.041647,43.609258,19.953843,5.342947,0.000000,-8.000000,-8.000000,-6.000000,0.486185,-0.113498,1.000000,4.356652,495.1982,1
2.8958,3.053529,-3.607479,0.115116,-0.694501,-4.754432,-0.272009,-2.227503,-0.063315,-2.705680,42.196958,-6.763282,10.728237,0.000000,6.733872,-8.000000,-6.000000,0.484615,-0.119290,1.000000,4.421516,111.9621,1
2.9167,3.040621,-3.709471,0.103931,-0.556218,-4.954549,-0.736065,-2.861280,0.516477,-2.551496,37.836845,-10.815092,14.629895,0.000000,8.000000,-8.000000,-6.000000,0.482963,-0.125000,1.000000,4.493661,143.9998,1
2.9375,3.036393,-3.806080,0.097378,0.106190,-4.306733,0.193482,2.620764,0.640080,-2.852522,22.880795,25.023641,7.393899,7.848000,0.000000,0.000000,0.000000,0.481228,-0.130625,1.000000,4.566461,815.1238,0
2.9583,3.042842,-3.888809,0.109498,0.392308,-3.759614,0.767787,2.183792,0.297596,-2.867400,11.745795,15.022026,9.950340,20.000000,-8.000000,-0.432465,6.000000,0.479410,-0.136160,1.000000,4.631042,564.4953,1
2.9792,3.051198,-3.960458,0.125496,0.379856,-3.269620,0.680723,1.780643,0.194116,-2.752021,17.127234,10.382740,9.594739,20.000000,-8.000000,6.622082,6.000000,0.477510,-0.141602,1.000000,4.687462,237.5488,1
3.0000,3.057550,-4.024368,0.136322,0.244682,-2.935019,0.432462,1.329582,0.128742,-2.608918,18.199775,13.527831,10.753661,20.000000,-8.000000,-8.000000,6.000000,0.475528,-0.146946,1.000000,4.737845,142.9136,1
3.0208,3.059582,-4.080611,0.144394,-0.001129,-2.557720,0.389348,0.730631,0.036092,-2.552926,23.087530,23.660604,1.778214,20.000000,-8.000000,-8.000000,6.000000,0.473465,-0.152190,1.000000,4.780434,208.4422,1
3.0417,3.057467,-4.130762,0.154499,-0.138136,-2.332601,0.573360,-0.039788,-0.239074,-2.518420,22.340265,36.947145,-2.930130,20.000000,-5.872794,-8.000000,2.304298,0.471321,-0.157330,1.000000,4.815723,160.6443,1
3.0625,3.056300,-4.178781,0.169718,0.051508,-2.315179,0.812876,-1.162895,-0.604924,-2.062921,20.434479,53.090787,0.419875,7.848000,0.000000,0.000000,0.000000,0.469096,-0.162362,1.000000,4.849187,1020.1161,0
3.0833,3.059668,-4.227499,0.184699,0.238249,-2.353919,0.626135,-2.423587,-0.304264,-1.340874,20.086998,50.099956,6.020603,7.848000,0.000000,0.000000,0.000000,0.466790,-0.167283,1.000000,4.886009,931.4060,0
3.1042,3.066211,-4.276544,0.193300,0.341748,-2.342498,0.256534,3.057781,0.455217,-1.231161,23.680712,45.676010,7.217833,7.848000,0.000000,0.000000,0.000000,0.464405,-0.172089,1.000000,4.926126,930.3744,0
3.1250,3.072635,-4.324236,0.193953,0.264907,-2.244322,-0.102685,1.756714,1.006570,-2.077222,25.723509,42.490112,3.432889,7.848000,0.000000,0.000000,0.000000,0.461940,-0.176777,1.000000,4.966574,1011.6417,0
3.1458,3.076204,-4.369390,0.189184,0.110698,-2.118477,-0.286027,0.476884,0.486221,-3.029381,23.614996,41.541705,-0.926630,20.000000,-8.000000,0.942440,6.000000,0.459396,-0.181344,1.000000,5.004482,315.6514,1
3.1667,3.076586,-4.411641,0.184487,-0.004063,-1.987460,-0.163754,0.007237,-0.377665,-3.087560,17.303718,42.988599,0.098347,20.000000,-1.667669,-8.000000,1.159231,0.456773,-0.185786,1.000000,5.038485,318.3732,1
3.1875,3.079133,-4.452937,0.184020,0.259532,-1.999644,0.035422,-1.312882,-1.178308,-2.012145,20.674507,55.381026,1.231967,0.000000,-0.101736,-8.000000,-6.000000,0.454072,-0.190101,1.000000,5.072331,158.4933,1
3.2083,3.087860,-4.495176,0.182251,0.518089,-2.041643,-0.210874,-2.846795,-0.244365,-0.695214,22.566921,63.020596,5.337094,7.848000,0.000000,0.000000,0.000000,0.451293,-0.194286,1.000000,5.110562,923.3205,0
3.2292,3.099339,-4.537359,0.173029,0.540014,-2.000081,-0.598583,3.036685,1.063969,-0.752553,28.691299,56.693237,3.225547,7.848000,0.000000,0.000000,0.000000,0.448436,-0.198338,1.000000,5.151530,860.6169,0
3.2500,3.108795,-4.577648,0.157038,0.388792,-1.886276,-0.847349,0.267246,0.769034,2.813729,27.186300,53.806990,-4.289692,20.000000,-8.000000,-8.000000,5.999999,0.445503,-0.202254,1.000000,5.191125,661.4084,1
3.2708,3.114114,-4.614353,0.141105,0.229007,-1.707265,-0.670817,0.180522,-0.563286,2.704258,28.567814,60.102438,-3.296395,7.848000,0.000000,0.000000,0.000000,0.442494,-0.206032,1.000000,5.225759,988.1840,0
3.2917,3.120372,-4.650053,0.126482,0.369421,-1.727545,-0.748739,-3.114433,-1.232005,-0.223734,23.132165,58.566516,5.372962,7.848000,0.000000,0.000000,0.000000,0.439409,-0.209668,1.000000,5.260002,948.7672,0
3.3125,3.130244,-4.686354,0.107377,0.526726,-1.741637,-1.056237,-2.808332,0.007588,-0.197408,27.749134,52.252533,10.538408,7.848000,0.000000,0.000000,0.000000,0.436248,-0.213160,1.000000,5.297533,947.1688,0
3.3333,3.137204,-4.716960,0.097727,0.019556,-1.084968,0.628547,-2.393010,0.684204,0.171006,6.205533,3.485028,9.334558,7.848000,0.000000,0.000000,0.000000,0.433013,-0.216506,1.000000,5.327366,870.5409,0
3.3542,3.135889,-4.737418,0.108221,-0.112280,-0.932191,0.386942,-2.219621,0.699709,0.487193,5.371702,2.039042,10.130498,7.848000,0.000000,0.000000,0.000000,0.429703,-0.219704,1.000000,5.341203,992.7833,0
3.3750,3.131849,-4.755440,0.112894,-0.251587,-0.822971,0.121122,-2.117393,0.647533,0.769035,4.236685,-1.186247,10.549343,20.000000,8.000000,-7.264661,-5.999999,0.426320,-0.222752,1.000000,5.352766,747.5874,1
3.3958,3.121895,-4.770446,0.114041,-0.630761,-0.658995,0.010408,-2.114883,0.559791,1.005424,2.523201,-3.638189,12.182947,20.000000,8.000000,1.737260,-1.425313,0.422864,-0.225646,1.000000,5.359561,127.0266,1
3.4167,3.105851,-4.783865,0.111246,-0.862214,-0.636839,-0.235913,-2.176554,0.410236,1.056951,7.105670,-6.722787,-1.600184,20.000000,8.000000,8.000000,5.105867,0.419335,-0.228386,1.000000,5.362801,95.8276,1
3.4375,3.082629,-4.795414,0.104391,-1.276489,-0.471897,-0.382387,-2.274610,0.127667,0.860984,9.636067,-15.578288,-11.904911,20.000000,8.000000,8.000000,6.000000,0.415735,-0.230970,1.000000,5.361771,98.5844,1
3.4583,3.051981,-4.800495,0.096044,-1.587792,0.004094,-0.261452,-2.441295,-0.339940,0.556526,3.279115,-27.630013,-17.092134,20.000000,8.000000,8.000000,6.000000,0.412063,-0.233395,1.000000,5.352075,174.6199,1
3.4792,3.019810,-4.791474,0.095339,-1.418158,0.750373,0.226222,-2.905736,-0.788062,0.472223,-13.473309,-23.268131,-15.951904,0.000000,8.000000,-7.999999,6.000000,0.408321,-0.235660,1.000000,5.328576,240.4263,1
3.5000,2.994771,-4.772412,0.101983,-1.109992,0.963255,0.220339,2.796432,-0.809845,0.690418,-14.700915,-5.317175,-7.003828,7.848000,0.000000,0.000000,0.000000,0.404508,-0.237764,1.000000,5.298956,893.8682,0
3.5208,2.975885,-4.751793,0.107024,-0.756852,0.992920,0.280475,2.429352,-0.678451,0.794199,-12.962021,-3.760662,-7.001793,7.848000,0.000000,0.000000,0.000000,0.400627,-0.239705,1.000000,5.271461,897.0664,0
3.5417,2.964475,-4.731966,0.114313,-0.438777,0.917667,0.375761,2.156200,-0.558052,0.809516,-9.965845,-2.340313,-6.649059,0.000000,-8.000000,2.437697,-4.050971,0.396677,-0.241481,1.000000,5.248093,438.8299,1
3.5625,2.959402,-4.714267,0.118421,-0.111841,0.794540,0.095979,1.987306,-0.447419,0.768311,-7.958876,-0.604882,-5.471416,0.000000,-8.000000,-6.547543,-5.999999,0.392658,-0.243092,1.000000,5.230369,143.9536,1
3.5833,2.959765,-4.699261,0.120885,0.098435,0.676965,0.062973,1.880622,-0.318185,0.526589,-7.837751,2.562787,-19.003664,0.000000,-8.000000,-8.000000,5.999999,0.388573,-0.244537,1.000000,5.218088,103.8191,1
3.6042,2.964121,-4.688977,0.121844,0.259342,0.359141,0.045377,1.809788,-0.217047,0.148220,-2.526342,3.716528,-19.117097,0.000000,-8.000000,-8.000000,6.000000,0.384421,-0.245814,1.000000,5.212266,84.8241,1
3.6250,2.970023,-4.686140,0.122130,0.279486,-0.013213,-0.002593,1.780083,-0.145896,-0.250020,-0.415760,3.252173,-19.566173,0.000000,-8.000000,-8.000000,6.000000,0.380203,-0.246922,1.000000,5.213874,128.0706,1
3.6458,2.974492,-4.690746,0.121935,0.151944,-0.334771,0.026831,1.782903,-0.081199,-0.662894,4.661098,0.764655,-19.748070,0.000000,-8.000000,-8.000000,6.000000,0.375920,-0.247861,1.000000,5.221379,79.9487,1
3.6667,2.974235,-4.700932,0.121750,-0.135633,-0.576773,-0.040697,1.855780,0.015220,-1.080482,6.584828,-0.106387,-20.041219,0.000000,-8.000000,-8.000000,5.999999,0.371572,-0.248630,1.000000,5.231459,177.4960,1
3.6875,2.966997,-4.714362,0.120164,-0.493585,-0.660060,-0.068438,1.944670,0.167664,-1.490981,9.207712,-4.801297,-20.035554,0.000001,-8.000000,-8.000000,6.000000,0.367161,-0.249229,1.000000,5.241247,160.0759,1
3.7083,2.952122,-4.727269,0.117098,-0.860118,-0.561870,-0.144047,2.071480,0.384271,-1.874203,9.276860,-9.685127,-20.005515,7.848000,0.000000,0.000000,0.000000,0.362687,-0.249657,1.000000,5.247256,1053.0381,0
3.7292,2.932087,-4.736757,0.114716,-1.021564,-0.352612,-0.017684,2.258918,0.654320,-2.182710,5.657529,-15.317008,-18.719193,7.848000,0.000000,0.000000,0.000000,0.358151,-0.249914,1.000000,5.247917,1076.6501,0
3.7500,2.909934,-4.741163,0.114365,-1.067781,-0.079472,0.124872,2.548698,0.924001,-2.353773,-0.649989,-15.902899,-17.715967,7.848000,0.000000,0.000000,0.000000,0.353553,-0.250000,1.000000,5.243089,906.4398,0
3.7708,2.888215,-4.740068,0.116005,-1.013643,0.140084,0.051816,3.032044,1.113608,-2.300084,-2.614035,-14.133291,-17.069015,7.848000,0.000000,0.000000,0.000000,0.348895,-0.249914,1.000000,5.233648,760.8912,0
3.7917,2.869132,-4.734711,0.119349,-0.851186,0.315288,0.164031,-2.669368,1.153007,-2.114412,-5.984106,-8.622118,-16.160731,0.000000,-7.999999,-8.000000,5.999988,0.344177,-0.249657,1.000000,5.221748,364.5203,1
3.8125,2.855516,-4.726225,0.121209,-0.512784,0.445009,0.093862,-2.252140,1.110701,-2.075439,-5.905409,-3.801204,-16.336314,0.000000,4.975121,-8.000000,2.561267,0.339400,-0.249229,1.000000,5.210240,128.6223,1
3.8333,2.846910,-4.716619,0.121952,-0.345715,0.465481,0.001800,-1.974676,1.057867,-2.248633,-5.249851,-4.051895,-22.535394,0.000000,8.000000,-8.000000,6.000000,0.334565,-0.248630,1.000000,5.200554,111.8450,1
3.8542,2.841161,-4.707413,0.122167,-0.225701,0.410850,-0.000372,-1.833924,1.040775,-2.641558,-2.180305,-1.575843,-25.908404,0.000000,8.000000,-8.000000,6.000000,0.329673,-0.247861,1.000000,5.192857,118.3164,1
3.8750,2.837864,-4.700653,0.121054,-0.116960,0.245337,-0.117834,-1.653863,1.093123,-3.067696,-6.467828,-5.174415,-29.650402,0.000000,8.000000,-8.000000,6.000000,0.324724,-0.246922,1.000000,5.188847,140.6043,1
3.8958,2.834652,-4.697259,0.121420,-0.210047,0.090424,0.058076,-1.457712,1.125899,2.731678,-3.008227,2.527108,-32.549500,0.000000,8.000000,8.000000,0.315607,0.319720,-0.245814,1.000000,5.187692,289.0368,1
3.9167,2.828352,-4.697714,0.121353,-0.384724,-0.081583,-0.026735,-1.414793,1.072905,1.921575,3.190673,2.103284,-46.060142,0.001634,-4.550432,8.000000,6.000000,0.314660,-0.244537,1.000000,5.188589,161.8061,1
3.9375,2.817451,-4.700478,0.121598,-0.652681,-0.177550,0.092269,-1.662697,1.015989,0.852270,-3.783893,-4.266349,-37.493813,7.848000,0.000000,0.000000,0.000000,0.309547,-0.243092,1.000000,5.189360,883.5609,0
3.9583,2.802152,-4.702209,0.122526,-0.773127,-0.008578,0.011271,-1.781506,0.953235,-0.020238,-0.486015,-4.571448,-36.758995,20.000000,8.000000,3.608634,6.000000,0.304381,-0.241481,1.000000,5.187187,158.6683,1
3.9792,2.785611,-4.696333,0.121438,-0.755004,0.476294,-0.093875,-1.691911,0.865014,-0.857523,1.675242,-5.985773,-47.848209,3.218479,8.000000,-5.205453,6.000000,0.299162,-0.239705,1.000000,5.178400,225.0180,1
4.0000,2.771296,-4.685911,0.120771,-0.593261,0.540751,-0.121092,-1.541489,0.853716,-1.720727,2.169750,-10.515578,-46.597151,7.848000,0.000000,0.000000,0.000000,0.293893,-0.237764,1.000000,5.166873,831.7177,0
4.0208,2.760582,-4.677999,0.122360,-0.447123,0.352156,0.044563,-1.413225,0.761405,-2.507011,-5.296858,-1.593984,-41.402827,7.848000,0.000000,0.000000,0.000000,0.288573,-0.235660,1.000000,5.159017,883.8332,0
4.0417,2.752656,-4.672244,0.122588,-0.357290,0.215393,-0.005679,-1.319804,0.793619,2.994567,-1.442349,-3.258039,-40.077566,7.848000,0.000000,0.000000,0.000000,0.283203,-0.233395,1.000000,5.154749,851.5086,0
4.0625,2.744498,-4.669538,0.122086,-0.434903,0.083959,-0.036856,-1.406925,0.854595,2.114035,1.960389,-5.109307,-38.487836,7.848000,0.000000,0.000000,0.000000,0.277785,-0.230970,1.000000,5.153280,909.3468,0
4.0833,2.733351,-4.668126,0.120569,-0.605169,0.076709,-0.104305,-1.598994,0.784466,1.192021,4.990527,-7.200170,-36.693603,20.000000,2.950895,8.000000,6.000000,0.272320,-0.228386,1.000000,5.151831,327.0955,1
4.1042,2.715828,-4.666594,0.122235,-0.967501,0.203085,0.040632,-1.765735,0.759453,0.237171,-2.832639,-6.170929,-44.248041,7.848000,0.000000,0.000000,0.000000,0.266807,-0.225646,1.000000,5.146862,931.8724,0
4.1250,2.695402,-4.660102,0.122598,-0.958997,0.371114,0.059441,-1.807793,0.595050,-0.690166,-5.995512,-7.612284,-42.400823,7.848000,0.000000,0.000000,0.000000,0.261249,-0.222752,1.000000,5.136635,925.8361,0
4.1458,2.676763,-4.650309,0.121883,-0.856442,0.518991,0.046106,-1.712802,0.435462,-1.505308,-4.124470,-4.198147,-40.070554,7.848000,0.000000,0.000000,0.000000,0.255647,-0.219704,1.000000,5.124759,886.5108,0
4.1667,2.661621,-4.638840,0.121055,-0.637573,0.550737,-0.088712,-1.591614,0.432059,-2.267439,-0.530599,-6.229327,-38.150147,0.000000,8.000000,8.000000,6.000000,0.250000,-0.216506,1.000000,5.113267,596.0448,1
4.1875,2.651187,-4.631448,0.120694,-0.456562,0.153938,0.086299,-1.514785,0.491456,-2.973842,-5.459864,-0.205270,-33.063765,7.848000,0.000000,0.000000,0.000000,0.244311,-0.213160,1.000000,5.107593,1011.5130,0
4.2083,2.642141,-4.630474,0.121716,-0.439705,-0.024686,0.028154,-1.446303,0.506897,2.659697,-1.488106,-0.731759,-32.470558,7.848000,0.000000,0.000000,0.000000,0.238579,-0.209668,1.000000,5.108035,1023.5143,0
4.2292,2.631681,-4.632738,0.121650,-0.557820,-0.151858,-0.027084,-1.475746,0.508737,1.980036,2.195905,-1.507995,-31.538692,7.848000,0.000000,0.000000,0.000000,0.232807,-0.206032,1.000000,5.110951,919.4245,0
4.2500,2.618171,-4.636203,0.120492,-0.709290,-0.159603,-0.080877,-1.589719,0.421046,1.290900,5.141495,-7.398477,-29.961031,7.848000,0.000000,0.000000,0.000000,0.226995,-0.202254,1.000000,5.113820,939.9400,0
4.2708,2.601553,-4.640459,0.122193,-0.860148,-0.154479,0.037922,-1.707521,0.372164,0.666102,0.118404,-6.029805,-27.697681,7.848000,0.000000,0.000000,0.000000,0.221144,-0.198338,1.000000,5.115596,1097.0924,0
4.2917,2.582367,-4.641646,0.122023,-0.934274,-0.005575,0.080709,-1.742159,0.236752,0.083772,-1.952723,-7.774273,-26.974877,7.848000,0.000000,0.000000,0.000000,0.215256,-0.194286,1.000000,5.114007,945.7834,0
4.3125,2.562800,-4.639181,0.121693,-0.929560,0.200754,-0.080997,-1.718310,0.074516,-0.469917,0.564307,-8.316831,-26.362545,7.848000,0.000000,0.000000,0.000000,0.209330,-0.190101,1.000000,5.109262,985.6811,0
4.3333,2.544521,-4.633480,0.122005,-0.829805,0.340783,-0.042652,-1.664359,-0.051723,-1.001947,-1.273668,-6.575181,-25.128140,7.848000,0.000000,0.000000,0.000000,0.203368,-0.185786,1.000000,5.102338,967.4239,0
4.3542,2.529414,-4.625101,0.120473,-0.619430,0.391028,0.048186,-1.530829,-0.124001,-1.514871,-6.320128,-7.705444,-22.114393,7.848000,0.000000,0.000000,0.000000,0.197372,-0.181344,1.000000,5.094994,937.0487,0
4.3750,2.518628,-4.616756,0.122062,-0.439318,0.400189,0.037703,-1.440666,-0.218872,-1.977093,-4.504925,-3.463655,-21.189832,7.848000,0.000000,0.000000,0.000000,0.191342,-0.176777,1.000000,5.089249,820.4119,0
4.3958,2.511748,-4.609072,0.122090,-0.262831,0.338583,-0.016198,-1.339842,-0.234856,-2.435336,-2.757815,-3.407464,-20.678957,7.848000,0.000000,0.000000,0.000000,0.185279,-0.172089,1.000000,5.086257,1026.1693,0
4.4167,2.507896,-4.603440,0.121556,-0.142301,0.218829,-0.027316,-1.273520,-0.190392,-2.874645,-1.122548,-3.445052,-20.208610,7.848000,0.000000,0.000000,0.000000,0.179184,-0.167283,1.000000,5.086655,1111.5236,0
4.4375,2.505596,-4.600734,0.121132,-0.100534,0.068514,-0.013897,-1.265920,-0.118629,2.991777,0.463953,-3.619650,-19.742790,7.848000,0.000000,0.000000,0.000000,0.173059,-0.162362,1.000000,5.090411,1071.1262,0
4.4583,2.503177,-4.601513,0.121363,-0.132442,-0.107589,0.026935,-1.275977,-0.050979,2.589788,-1.328446,-2.764303,-19.145894,7.848000,0.000000,0.000000,0.000000,0.166903,-0.157330,1.000000,5.097150,957.4604,0
4.4792,2.499349,-4.605430,0.122050,-0.227154,-0.235903,0.035006,-1.310987,-0.003119,2.194084,0.298249,-3.003900,-18.944053,7.848000,0.000000,0.000000,0.000000,0.160720,-0.152190,1.000000,5.106009,887.3999,0
4.5000,2.492784,-4.611400,0.122626,-0.379848,-0.312354,0.017751,-1.381644,0.000446,1.801693,1.868102,-3.397765,-18.746262,7.848000,0.000000,0.000000,0.000000,0.154508,-0.146946,1.000000,5.115532,984.5603,0
4.5208,2.482599,-4.618168,0.122312,-0.563665,-0.323994,-0.041409,-1.459664,-0.055073,1.415051,3.425871,-3.943758,-18.572081,7.848000,0.000000,0.000000,0.000000,0.148271,-0.141602,1.000000,5.124360,981.1850,0
4.5417,2.468669,-4.624265,0.121211,-0.730793,-0.259911,-0.027779,-1.541810,-0.171969,1.042413,3.599931,-7.753251,-18.082910,7.848000,0.000000,0.000000,0.000000,0.142008,-0.136160,1.000000,5.131151,704.9718,0
4.5625,2.451250,-4.629140,0.121040,-0.900778,-0.211947,0.009021,-1.616331,-0.287077,0.700685,1.098189,-4.998354,-16.752062,7.848000,0.000000,0.000000,0.000000,0.135720,-0.130625,1.000000,5.135259,978.7829,0
4.5833,2.431710,-4.631960,0.122310,-0.966354,-0.071041,0.036488,-1.690603,-0.403749,0.378377,-0.049219,-6.981879,-16.685951,7.848000,0.000000,0.000000,0.000000,0.129410,-0.125000,1.000000,5.136499,1017.4072,0
4.6042,2.411120,-4.631290,0.122611,-0.987196,0.094743,0.057247,-1.738574,-0.551929,0.055185,-1.799347,-7.614188,-16.385935,7.848000,0.000000,0.000000,0.000000,0.123077,-0.119290,1.000000,5.134501,901.3314,0
4.6250,2.390793,-4.626984,0.122417,-0.952495,0.260549,0.087971,-1.760530,-0.713725,-0.270174,-3.408362,-6.943424,-15.878443,7.848000,0.000000,0.000000,0.000000,0.116723,-0.113498,1.000000,5.129630,1003.2675,0
4.6458,2.371944,-4.619304,0.121996,-0.865803,0.436864,-0.082373,-1.746524,-0.870787,-0.607853,-2.425585,-7.192675,-15.520136,19.999999,8.000000,8.000000,6.000000,0.110349,-0.107628,1.000000,5.122589,451.5274,1
4.6667,2.357387,-4.607124,0.121285,-0.559411,0.693718,-0.085205,-1.571137,-0.993579,-1.045157,1.803350,-10.630862,-12.999489,0.000000,8.000000,8.000000,6.000000,0.103956,-0.101684,1.000000,5.113617,96.3333,1
4.6875,2.349798,-4.591858,0.120785,-0.223449,0.759594,0.075845,-1.442737,-1.132299,-1.393647,-7.581440,-1.471179,-10.664096,7.848000,0.000000,0.000000,0.000000,0.097545,-0.095671,1.000000,5.105033,1008.6181,0
4.7083,2.347535,-4.575388,0.120589,-0.030830,0.806417,-0.066500,-1.377967,-1.292519,-1.675709,-7.734071,-1.297256,-10.552101,7.848000,0.000000,0.000000,0.000000,0.091118,-0.089592,1.000000,5.097759,1054.7187,0
4.7292,2.349486,-4.558706,0.120821,0.173064,0.799152,-0.047225,-1.237233,-1.455028,-2.029535,-7.921940,0.994164,-10.284866,7.848000,0.000000,0.000000,0.000000,0.084675,-0.083452,1.000000,5.092173,830.2488,0
4.7500,2.355631,-4.542667,0.120748,0.373303,0.748875,-0.031482,1.265734,-1.508550,1.542445,-7.619645,3.251577,-10.050088,7.848000,0.000000,0.000000,0.000000,0.078217,-0.077254,1.000000,5.089166,866.3838,0
4.7708,2.365806,-4.528142,0.120261,0.562677,0.657354,-0.019946,1.587016,-1.335104,1.017014,-6.866600,5.389823,-9.857324,7.848000,0.000000,0.000000,0.000000,0.071746,-0.071004,1.000000,5.089472,852.3760,0
4.7917,2.379397,-4.514852,0.120788,0.689331,0.602650,0.083634,1.644427,-1.205309,0.772985,-3.658977,5.222651,-8.996910,7.848000,0.000000,0.000000,0.000000,0.065263,-0.064705,1.000000,5.092351,273.7911,0
4.8125,2.395443,-4.503899,0.120898,0.821678,0.471603,-0.048326,1.665422,-1.070261,0.564822,-3.728141,5.463154,-9.115775,7.848000,0.000000,0.000000,0.000000,0.058769,-0.058361,1.000000,5.098595,925.1041,0
4.8333,2.413232,-4.495676,0.121933,0.893151,0.330459,-0.005841,1.689488,-0.928340,0.357517,-2.463516,6.462015,-8.990584,7.848000,0.000000,0.000000,0.000000,0.052264,-0.051978,1.000000,5.107997,739.2981,0
4.8542,2.432487,-4.490710,0.122300,0.939580,0.174951,0.036434,1.697020,-0.781233,0.166163,-0.982085,7.091382,-8.861779,7.848000,0.000000,0.000000,0.000000,0.045751,-0.045559,1.000000,5.121156,733.9900,0
4.8750,2.452539,-4.489295,0.121857,0.961247,0.011453,0.085866,1.694508,-0.629979,-0.016796,0.607595,7.329612,-8.749973,7.848000,0.000000,0.000000,0.000000,0.039230,-0.039109,1.000000,5.138030,1028.6694,0
4.8958,2.472626,-4.491440,0.121707,0.962078,-0.179360,-0.069794,1.691786,-0.475626,-0.198127,0.741867,7.453108,-8.771751,0.000000,-8.000000,-8.000000,2.396086,0.032702,-0.032632,1.000000,5.158062,230.6917,1
4.9167,2.491387,-4.498715,0.122342,0.860047,-0.475917,-0.033523,1.710499,-0.319429,-0.391974,3.450826,6.801421,-9.237347,0.000000,-8.000000,-8.000000,4.030784,0.026168,-0.026132,1.000000,5.181851,80.2150,1
4.9375,2.507172,-4.512333,0.122622,0.681208,-0.772205,-0.016768,1.749858,-0.160158,-0.599532,6.213097,5.515212,-9.831450,0.000000,-8.000000,-8.000000,5.898570,0.019630,-0.019615,1.000000,5.209816,82.6283,1
4.9583,2.518391,-4.531741,0.122369,0.437621,-1.035350,-0.024699,1.810263,0.014801,-0.817414,7.896464,3.585113,-10.503473,0.000000,-8.000000,-8.000000,6.000000,0.013088,-0.013084,1.000000,5.240710,80.0362,1
4.9792,2.523690,-4.555798,0.121012,0.119755,-1.223104,-0.030263,1.887526,0.208946,-1.038132,10.765404,1.454868,-11.318892,0.000000,-8.000000,-8.000000,6.000000,0.006545,-0.006544,1.000000,5.272983,95.3932,1
5.0000,2.521716,-4.582625,0.119458,-0.241775,-1.318703,-0.112537,1.995672,0.430029,-1.248159,11.962842,-0.968389,-12.024273,0.000000,-8.000000,-8.000000,6.000000,0.000000,-0.000000,1.000000,5.304230,80.1320,1
5.0208,2.511682,-4.609600,0.117666,-0.649313,-1.245666,-0.000872,2.162820,0.676721,-1.412716,13.634359,-7.055164,-12.095766,7.848000,0.000000,0.000000,0.000000,-0.006545,0.006544,1.000000,5.331864,847.4231,0
5.0417,2.495630,-4.634489,0.116530,-0.847542,-1.151441,-0.091467,2.443071,0.937013,-1.457551,13.548794,-7.932959,-11.771049,7.848000,0.000000,0.000000,0.000000,-0.013088,0.013084,1.000000,5.354822,1009.9690,0
5.0625,2.475541,-4.655980,0.117125,-1.025641,-0.956838,0.039877,2.961099,1.128905,-1.243641,10.565252,-10.910963,-11.010536,7.848000,0.000000,0.000000,0.000000,-0.019630,0.019615,1.000000,5.372759,919.9276,0
5.0833,2.453017,-4.672827,0.120319,-1.105678,-0.724387,0.148275,-2.620515,1.143139,-0.818414,6.633877,-11.523617,-9.930109,20.000000,-3.087786,-4.044422,-1.450019,-0.026168,0.026132,1.000000,5.385203,359.2839,1
5.1042,2.429739,-4.685196,0.122154,-1.117480,-0.507359,0.059556,-2.100042,1.074044,-0.363283,6.203940,-7.967129,5.773460,20.000000,-7.999999,-7.999999,-6.000000,-0.032702,0.032632,1.000000,5.393711,100.3206,1
5.1250,2.406116,-4.691652,0.122491,-1.150989,-0.180258,-0.003849,-1.884988,0.911946,0.000734,2.180858,-9.338424,10.452471,20.000000,2.321685,-2.639661,-6.000000,-0.039230,0.039109,1.000000,5.397206,73.1776,1
5.1458,2.380812,-4.690788,0.122011,-1.266427,0.184138,-0.031880,-1.878646,0.707432,0.227803,0.478247,-10.102889,10.653188,20.000000,8.000000,1.290160,-6.000000,-0.045751,0.045559,1.000000,5.393704,112.2999,1
5.1667,2.352136,-4.682892,0.119839,-1.456494,0.503855,-0.157742,-2.001270,0.503883,0.377933,-2.996305,-11.395693,10.210659,20.000000,8.000000,4.433491,3.334443,-0.052264,0.051978,1.000000,5.382826,113.0733,1
5.1875,2.318673,-4.668162,0.112443,-1.705689,0.836654,-0.497371,-2.175487,0.280707,0.356384,-2.516638,-13.685777,-2.946373,20.000000,8.000000,8.000000,4.027823,-0.058769,0.058361,1.000000,5.364700,223.8996,1
5.2083,2.281283,-4.646997,0.097703,-1.822118,1.132892,-0.835273,-2.375238,-0.076956,0.151332,-8.682956,-23.716032,-11.636135,0.000002,8.000000,4.393039,6.000000,-0.065263,0.064705,1.000000,5.340464,231.5872,1
5.2292,2.245405,-4.618179,0.080201,-1.564307,1.588632,-0.688499,-2.858749,-0.534622,0.111633,-31.412847,-15.747003,-9.325656,7.848000,0.000000,0.000000,0.000000,-0.071746,0.071004,1.000000,5.310711,897.1930,0
5.2500,2.218116,-4.583318,0.069869,-1.134836,1.681115,-0.379474,2.681491,-0.311037,0.267086,-29.371327,17.389569,-10.870743,0.000000,-8.000000,6.302931,1.869792,-0.078217,0.077254,1.000000,5.278183,269.8796,1
5.2708,2.199647,-4.552669,0.067170,-0.815053,1.329870,-0.086129,2.638652,0.163531,-0.006352,5.327128,16.050797,-14.581582,0.000000,-8.000000,8.000000,4.901214,-0.084675,0.083452,1.000000,5.251848,206.6534,1
5.2917,2.182379,-4.527703,0.062441,-0.854990,1.136662,-0.361992,2.774346,0.249673,-0.235039,4.120248,-3.399203,-10.426560,0.000000,-8.000000,-8.000000,6.000000,-0.091118,0.089592,1.000000,5.231369,283.9026,1
5.3125,2.163040,-4.505601,0.048466,-0.976792,1.019981,-0.880723,2.910614,0.161468,-0.451219,4.634346,-7.930096,-12.461952,0.000000,-8.000000,-8.000000,6.000000,-0.097545,0.095671,1.000000,5.214151,95.8126,1
5.3333,2.141527,-4.484951,0.023300,-1.058002,0.981292,-1.429703,3.105078,0.026608,-0.708642,3.635515,-12.210946,-13.785378,7.848000,0.000000,0.000000,0.000000,-0.103956,0.101684,1.000000,5.199361,736.4259,0
5.3542,2.131435,-4.469513,0.016169,-0.309490,0.628985,-0.055207,3.105715,-0.080860,-0.750416,2.937362,1.267833,1.319303,0.000000,-8.000000,-8.000000,-0.072063,-0.110349,0.107628,1.000000,5.190735,182.5407,1
5.3750,2.125438,-4.457343,0.010833,-0.248907,0.530229,-0.310477,-3.114061,0.053035,-0.758800,7.226007,-8.217891,-3.338050,0.000000,8.000000,-8.000000,-3.709534,-0.116723,0.113498,1.000000,5.186360,210.2947,1
5.3958,2.123033,-4.448509,0.005914,-0.005600,0.290732,-0.069880,3.057200,0.020909,-0.761323,7.056979,13.985363,0.648739,0.000000,-8.000000,8.000000,-5.999998,-0.123077,0.119290,1.000000,5.186329,451.3748,1
5.4167,2.122200,-4.444133,0.002047,-0.022967,0.216102,-0.271077,-3.100418,-0.058391,-0.806200,-14.174108,-4.739244,-1.903072,0.000000,8.000000,-8.000000,-2.269393,-0.129410,0.125000,1.000000,5.190629,578.4843,1
5.4375,2.123422,-4.441596,0.010247,0.052098,0.068992,0.282238,3.101788,-0.065638,-0.805085,0.971513,0.969987,0.358563,0.000000,-8.000000,-8.000000,2.831005,-0.135720,0.130625,1.000000,5.195049,313.1003,1
5.4583,2.123804,-4.441642,0.013923,0.004273,-0.018290,0.148083,3.115389,-0.043231,-0.807956,1.031190,0.228149,-0.002179,0.000000,-8.000000,-8.000000,5.649535,-0.142008,0.136160,1.000000,5.202165,73.2567,1
5.4792,2.123875,-4.441950,0.016338,0.002924,-0.012700,0.097318,3.124334,-0.028485,-0.808289,0.679126,0.150226,0.000072,0.000000,-8.000000,-8.000000,5.856969,-0.148271,0.141602,1.000000,5.209528,64.1329,1
5.5000,2.123922,-4.442162,0.017927,0.001946,-0.008689,0.064037,3.130224,-0.018756,-0.808426,0.448039,0.099516,-0.000140,0.000000,-8.000000,-8.000000,5.987230,-0.154508,0.146946,1.000000,5.216860,95.6092,1
5.5208,2.123957,-4.442311,0.018972,0.001522,-0.006105,0.042133,3.134089,-0.012362,-0.808675,0.293359,0.065118,-0.014701,0.000000,-8.000000,-8.000000,5.999961,-0.160720,0.152190,1.000000,5.224137,113.2603,1
5.5417,2.123980,-4.442413,0.019660,0.000824,-0.004209,0.027746,3.136641,-0.008149,-0.808853,0.194437,0.042865,-0.002504,0.000000,-8.000000,-8.000000,5.999982,-0.166903,0.157330,1.000000,5.231334,129.4825,1
5.5625,2.123993,-4.442482,0.020113,0.000560,-0.002749,0.018276,3.138328,-0.005366,-0.808897,0.128302,0.028244,-0.001093,0.000000,-8.000000,-8.000000,5.999989,-0.173059,0.162362,1.000000,5.238436,96.6854,1
5.5833,2.124003,-4.442526,0.020410,0.000393,-0.001799,0.011993,3.139427,-0.003518,-0.808918,0.084540,0.019380,-0.000574,0.000000,-8.000000,-8.000000,5.999990,-0.179184,0.167283,1.000000,5.245437,111.9466,1
5.6042,2.124009,-4.442556,0.020606,0.000262,-0.001180,0.007902,3.140151,-0.002300,-0.808929,0.055733,0.012775,-0.000305,0.000000,-8.000000,-8.000000,5.999992,-0.185279,0.172089,1.000000,5.252330,96.0717,1
5.6250,2.124014,-4.442575,0.020735,0.000174,-0.000776,0.005207,3.140629,-0.001497,-0.808934,0.036737,0.008421,-0.000188,0.000000,-8.000000,-8.000000,5.999994,-0.191342,0.176777,1.000000,5.259110,121.9232,1
5.6458,2.124017,-4.442588,0.020820,0.000115,-0.000510,0.003432,3.140944,-0.000968,-0.808938,0.024214,0.005551,-0.000137,0.000000,-8.000000,-8.000000,5.999995,-0.197372,0.181344,1.000000,5.265774,104.0218,1
5.6667,2.124019,-4.442596,0.020876,0.000076,-0.000336,0.002262,3.141151,-0.000619,-0.808941,0.015960,0.003659,-0.000115,0.000000,-8.000000,-8.000000,5.999995,-0.203368,0.185786,1.000000,5.272318,96.4582,1
5.6875,2.124020,-4.442601,0.020913,0.000050,-0.000221,0.001490,3.141288,-0.000390,-0.808943,0.010519,0.002412,-0.000105,0.000000,-8.000000,-8.000000,5.999995,-0.209330,0.190101,1.000000,5.278737,99.9072,1
5.7083,2.124021,-4.442605,0.020938,0.000030,-0.000140,0.000987,3.141378,-0.000243,-0.808944,0.006682,0.001298,-0.000041,0.000000,-8.000000,-8.000000,5.999995,-0.215256,0.194286,1.000000,5.285030,76.6177,1
5.7292,2.124021,-4.442607,0.020954,0.000020,-0.000092,0.000651,3.141438,-0.000150,-0.808945,0.004404,0.000855,-0.000040,0.000000,-8.000000,-8.000000,5.999995,-0.221144,0.198338,1.000000,5.291192,123.7319,1
5.7500,2.124021,-4.442609,0.020964,0.000011,-0.000048,0.000426,3.141478,-0.000090,-0.808946,0.002464,0.000228,0.000052,0.000000,-8.000000,-8.000000,5.999996,-0.226995,0.202254,1.000000,5.297220,117.3391,1
5.7708,2.124022,-4.442609,0.020971,0.000009,-0.000030,0.000281,3.141503,-0.000058,-0.808945,0.001624,0.000150,0.000052,0.000000,-8.000000,-8.000000,5.999996,-0.232807,0.206032,1.000000,5.303113,96.0379,1
5.7917,2.124022,-4.442610,0.020976,0.000008,-0.000018,0.000185,3.141519,-0.000038,-0.808944,0.001070,0.000099,0.000052,0.000000,-8.000000,-8.000000,5.999996,-0.238579,0.209668,1.000000,5.308866,129.4715,1
5.8125,2.124022,-4.442610,0.020979,0.000002,-0.000002,0.000125,3.141532,-0.000032,-0.808941,0.000501,-0.000212,0.000131,0.000000,-8.000000,-8.000000,5.999996,-0.244311,0.213160,1.000000,5.314478,129.4286,1
5.8333,2.124022,-4.442610,0.020981,0.000003,0.000002,0.000083,3.141539,-0.000027,-0.808938,0.000307,-0.000171,0.000131,0.000000,-8.000000,-8.000000,5.999995,-0.250000,0.216506,1.000000,5.319946,112.0758,1
5.8542,2.124022,-4.442610,0.020982,0.000002,0.000003,0.000043,3.141546,-0.000025,-0.808936,0.000268,-0.000240,0.000131,0.000000,-8.000000,-8.000000,5.999995,-0.255647,0.219704,1.000000,5.325267,96.5683,1
5.8750,2.124022,-4.442610,0.020983,0.000002,0.000006,0.000027,3.141552,-0.000022,-0.808934,0.000143,-0.000233,0.000131,0.000000,-8.000000,-8.000000,5.999995,-0.261249,0.222752,1.000000,5.330440,105.4883,1
5.8958,2.124022,-4.442610,0.020983,0.000011,-0.000003,0.000016,3.141555,-0.000019,-0.808932,0.000368,0.000229,0.000052,0.000000,-8.000000,-8.000000,5.999995,-0.266807,0.225646,1.000000,5.335462,80.3623,1
5.9167,2.124022,-4.442610,0.020984,0.000004,0.000009,0.000014,3.141558,-0.000019,-0.808929,0.000002,-0.000156,0.000131,0.000000,-8.000000,-8.000000,5.999995,-0.272320,0.228386,1.000000,5.340331,95.7537,1
5.9375,2.124022,-4.442610,0.020984,0.000003,0.000009,0.000008,3.141559,-0.000017,-0.808927,-0.000032,-0.000178,0.000131,0.000000,-8.000000,-8.000000,5.999995,-0.277785,0.230970,1.000000,5.345044,127.5430,1
5.9583,2.124023,-4.442610,0.020984,0.000011,-0.000001,0.000003,3.141560,-0.000016,-0.808925,0.000252,0.000265,0.000052,0.000000,-8.000000,-8.000000,5.999995,-0.283203,0.233395,1.000000,5.349601,96.1735,1
5.9792,2.124023,-4.442609,0.020984,0.000004,0.000010,0.000005,3.141561,-0.000017,-0.808923,-0.000074,-0.000133,0.000131,0.000000,-8.000000,-8.000000,5.999995,-0.288573,0.235660,1.000000,5.353998,112.7563,1
6.0000,2.124023,-4.442609,0.020984,0.000003,0.000011,0.000002,3.141561,-0.000016,-0.808921,-0.000082,-0.000163,0.000131,0.000000,-8.000000,-8.000000,5.999994,-0.293893,0.237764,1.000000,5.358235,95.9346,1
6.0208,2.124023,-4.442609,0.020984,0.000012,-0.000000,-0.000001,3.141562,-0.000015,-0.808918,0.000219,0.000275,0.000052,0.000000,-8.000000,-8.000000,5.999994,-0.299162,0.239705,1.000000,5.362310,86.1492,1
